{
  "{'q': 'coffee shop'}": {
    "error": "",
    "response": {
      "status": "OK",
      "request_id": "0588a80b-93c2-423a-8982-c482284a20f0",
      "data": [
        {
          "name": "4th Street Bowl Coffee Shop",
          "address": "N 4th St, San Jose, USA",
          "latitude": 37.3641709,
          "longitude": -121.90778659999998
        },
        {
          "name": "Lou's coffee shop",
          "address": "Los Gatos Blvd, Los Gatos, USA",
          "latitude": 37.240772199999995,
          "longitude": -121.9608841
        },
        {
          "name": "A BITE OF WYOMING Coffee Shop",
          "address": "Alum Rock Ave, San Jose, USA",
          "latitude": 37.3579045,
          "longitude": -121.84537300000001
        },
        {
          "name": "Ann's Coffee Shop",
          "address": "Santa Cruz Ave, Menlo Park, USA",
          "latitude": 37.4512925,
          "longitude": -122.18506280000001
        },
        {
          "name": "Kristi Marie's Coffee Shop",
          "address": "Arguello St, Redwood City, USA",
          "latitude": 37.4866252,
          "longitude": -122.23214479999999
        },
        {
          "name": "Neal's Coffee Shop",
          "address": "De Anza Blvd, San Mateo, USA",
          "latitude": 37.5213439,
          "longitude": -122.33681229999998
        },
        {
          "name": "Nini's Coffee Shop",
          "address": "N Idaho St, San Mateo, USA",
          "latitude": 37.5851544,
          "longitude": -122.33133349999999
        },
        {
          "name": "Anna's Family Coffee Shop",
          "address": "Winton Ave, Hayward, USA",
          "latitude": 37.662711699999996,
          "longitude": -122.08448530000001
        }
      ]
    }
  },
  "{'q': 'nearest coffee shop'}": {
    "error": "",
    "response": {
      "status": "OK",
      "request_id": "e8d7951a-5506-43ab-a226-96e2c7a348c8",
      "data": []
    }
  },
  "{'q': 'coffee shop near me'}": {
    "error": "",
    "response": {
      "status": "OK",
      "request_id": "a0a87920-dbd3-4658-bd31-797f02397ec1",
      "data": [
        {
          "name": "Ann's Coffee Shop",
          "address": "Santa Cruz Ave, Menlo Park, USA",
          "latitude": 37.4512925,
          "longitude": -122.18506280000001
        },
        {
          "name": "coffee shop",
          "address": "W Main St, Merced, USA",
          "latitude": 37.3005486,
          "longitude": -120.48089599999999
        },
        {
          "name": "James' Coffee Shop",
          "address": "Near Meadow Farm/Breaston La, Derby, UK",
          "latitude": 52.908539,
          "longitude": -1.3181440000000002
        },
        {
          "name": "Di Amici Coffee Shop",
          "address": "7th St, Mendota, USA",
          "latitude": 36.7506182,
          "longitude": -120.38562710000001
        },
        {
          "name": "Mom & Pop Coffee Shop",
          "address": "District Ave, Merrifield, USA",
          "latitude": 38.8721204,
          "longitude": -77.22970149999999
        },
        {
          "name": "My Coffee Shop at East Lake",
          "address": "Memorial Dr SE, Atlanta, USA",
          "latitude": 33.7473846,
          "longitude": -84.3063688
        },
        {
          "name": "Halban Castle Bakery & Coffee Shop",
          "address": "Near MediCare Speciality Complex and Pharmacy, Mabela, 8, Seeb, Oman",
          "latitude": 23.634131999999997,
          "longitude": 58.0692555
        },
        {
          "name": "T. DiStefano's Bakery & Coffee Shop",
          "address": "Fieldale Rd, Mebane, USA",
          "latitude": 36.075494299999995,
          "longitude": -79.2752264
        },
        {
          "name": "Alfred Coffee",
          "address": "Melrose Place, Los Angeles, CA, USA",
          "latitude": 34.0835054,
          "longitude": -118.3743368
        },
        {
          "name": "8 Kings Buffet Restaurant and Coffee Shop",
          "address": "1: Manila North Rd, Meycauayan, Philippines",
          "latitude": 14.7388468,
          "longitude": 120.9603119
        }
      ]
    }
  },
  "{'q': 'my location'}": {
    "error": "",
    "response": {
      "status": "OK",
      "request_id": "362f4f17-7055-44b7-91c9-09ffe46ece04",
      "data": [
        {
          "name": "My location",
          "address": "Hukimara Gaon, Assam, India",
          "latitude": 26.7956954,
          "longitude": 94.2199789
        },
        {
          "name": "My location",
          "address": "Civil Lines, Madhya Pradesh, India",
          "latitude": 24.5500209,
          "longitude": 81.2919069
        },
        {
          "name": "My location",
          "address": "Bherle, Maharashtra, India",
          "latitude": 18.963926999999998,
          "longitude": 73.1633995
        },
        {
          "name": "My location",
          "address": "Unnamed Road, Cagayan de Oro, Misamis Oriental, Philippines",
          "latitude": 8.5027247,
          "longitude": 124.6085942
        },
        {
          "name": "My location unknown (\u0e2a\u0e16\u0e32\u0e19\u0e17\u0e35\u0e48\u0e44\u0e21\u0e48\u0e23\u0e39\u0e49\u0e08\u0e31\u0e01)",
          "address": "Ban Kha, Ban Kha District, Ratchaburi, Thailand",
          "latitude": 13.421294,
          "longitude": 99.37811699999999
        },
        {
          "name": "My Location Lax",
          "address": "E Block, Pocket E, Sector 27, Noida, Uttar Pradesh, India",
          "latitude": 28.5743141,
          "longitude": 77.325605
        },
        {
          "name": "My location",
          "address": "Samanthi Malar St, Velnagar, Tiruppalai, Madurai, Tamil Nadu, India",
          "latitude": 10.760946899999999,
          "longitude": 79.59218849999999
        },
        {
          "name": "My location",
          "address": "Khujner, Madhya Pradesh, India",
          "latitude": 23.785085499999997,
          "longitude": 76.61786579999999
        },
        {
          "name": "My Location",
          "address": "\u0645\u062f\u064a\u0646\u0629 \u0627\u0644\u0643\u0648\u064a\u062a\u060c Kuwait",
          "latitude": 29.2833412,
          "longitude": 47.976392000000004
        },
        {
          "name": "My location",
          "address": "Danubyu, Myanmar (Burma)",
          "latitude": 17.2572218,
          "longitude": 95.5853597
        }
      ]
    }
  },
  "{'q': 'gas station'}": {
    "error": "",
    "response": {
      "status": "OK",
      "request_id": "9ff2c145-c877-4059-bdc6-b9bfdb3af56c",
      "data": [
        {
          "name": "City Gas Station",
          "address": "N Main St, Milpitas, USA",
          "latitude": 37.4308157,
          "longitude": -121.9066775
        },
        {
          "name": "National Petroleum",
          "address": "Old San Francisco Road, Sunnyvale, CA, USA",
          "latitude": 37.3675965,
          "longitude": -122.02252809999999
        },
        {
          "name": "World Gasoline",
          "address": "West Maude Avenue, Sunnyvale, CA, USA",
          "latitude": 37.3887248,
          "longitude": -122.02637860000002
        },
        {
          "name": "Alliance Gas Station",
          "address": "Sunnyvale Saratoga Road, Sunnyvale, CA, USA",
          "latitude": 37.3524898,
          "longitude": -122.03190519999998
        },
        {
          "name": "Costco Gas Station",
          "address": "Lawrence Station Road, Sunnyvale, CA, USA",
          "latitude": 37.3711428,
          "longitude": -121.9954933
        },
        {
          "name": "Alice's Gas Station",
          "address": "Skyline Blvd, Woodside, USA",
          "latitude": 37.3866136,
          "longitude": -122.26542789999999
        },
        {
          "name": "Gas station pilot",
          "address": "Old Bayshore Highway, San Jose, CA, USA",
          "latitude": 37.3686477,
          "longitude": -121.90795229999999
        },
        {
          "name": "Chevron Gas Station",
          "address": "East Fremont Avenue, Sunnyvale, CA, USA",
          "latitude": 37.3518884,
          "longitude": -122.0147418
        },
        {
          "name": "Coast Guard Island Gas Station (USCG Base Alameda access only)",
          "address": "Alameda",
          "latitude": 37.780575299999995,
          "longitude": -122.24747309999998
        }
      ]
    }
  },
  "{'q': 'gas station', 'coordinates': '37.4308157, -121.9066775'}": {
    "error": "",
    "response": {
      "status": "OK",
      "request_id": "648bf773-d475-412a-b3c0-6a76aa3d2191",
      "data": [
        {
          "name": "City Gas Station",
          "address": "N Main St, Milpitas, USA",
          "latitude": 37.4308157,
          "longitude": -121.9066775
        },
        {
          "name": "Gas station pilot",
          "address": "Old Bayshore Highway, San Jose, CA, USA",
          "latitude": 37.3686477,
          "longitude": -121.90795229999999
        },
        {
          "name": "Safeway Gas Station",
          "address": "Bernal Ave, Pleasanton, USA",
          "latitude": 37.6569268,
          "longitude": -121.8995894
        },
        {
          "name": "Pleasanton Gas Station",
          "address": "Main St, Pleasanton, USA",
          "latitude": 37.6627721,
          "longitude": -121.87509809999997
        },
        {
          "name": "Loop Car Wash And Gas Station",
          "address": "North Capitol Avenue, San Jose, CA, USA",
          "latitude": 37.396651299999995,
          "longitude": -121.8722911
        },
        {
          "name": "Costco Gas Station",
          "address": "Automation Parkway, San Jose, CA, USA",
          "latitude": 37.388232699999996,
          "longitude": -121.88338569999999
        },
        {
          "name": "Jackson Rancheria General Store & Gas Station",
          "address": "Dalton Rd, Jackson, USA",
          "latitude": 38.363029700000006,
          "longitude": -120.7328333
        },
        {
          "name": "Gas station",
          "address": "Zephyr Avenue, Hayward, CA, USA",
          "latitude": 37.611664499999996,
          "longitude": -122.04576530000001
        }
      ]
    }
  },
  "{'q': 'restaurant in city center'}": {
    "error": "",
    "response": {
      "status": "OK",
      "request_id": "ccfbb8f4-159d-429e-a5fc-9ee11f3aad62",
      "data": [
        {
          "name": "Chess Park Lounge",
          "address": "North Brand Boulevard, City Center, Glendale, CA, USA",
          "latitude": 34.1491825,
          "longitude": -118.25532029999998
        },
        {
          "name": "Veranda Restaurant",
          "address": "Artsakh Avenue, City Center, Glendale, CA, USA",
          "latitude": 34.1447682,
          "longitude": -118.25398469999999
        },
        {
          "name": "Impressions Banquet Hall",
          "address": "North Orange Street, City Center, Glendale, CA, USA",
          "latitude": 34.148655999999995,
          "longitude": -118.2562093
        },
        {
          "name": "Parc",
          "address": "South 18th Street, Rittenhouse Square, Philadelphia, PA, USA",
          "latitude": 39.9491222,
          "longitude": -75.170749
        },
        {
          "name": "Time",
          "address": "Sansom Street, Gayborhood, Philadelphia, PA, USA",
          "latitude": 39.9500362,
          "longitude": -75.162516
        },
        {
          "name": "Moshulu",
          "address": "South Christopher Columbus Boulevard, Penn's Landing, Philadelphia, PA, USA",
          "latitude": 39.9423355,
          "longitude": -75.1413081
        },
        {
          "name": "317 Charcuterie",
          "address": "City Center Drive, Carmel, IN, USA",
          "latitude": 39.970334699999995,
          "longitude": -86.1281971
        },
        {
          "name": "Tattu Restaurant and Bar",
          "address": "East Parade, Leeds, UK",
          "latitude": 53.798125000000006,
          "longitude": -1.5490694
        },
        {
          "name": "Tattu Restaurant and Bar",
          "address": "Barwick Street, Birmingham, UK",
          "latitude": 52.4821853,
          "longitude": -1.8992208999999998
        },
        {
          "name": "Shanghai Garden @ City Center Doha Mall",
          "address": "City center doha\u060c Doha, Qatar",
          "latitude": 25.325152,
          "longitude": 51.5294787
        }
      ]
    }
  },
  "{'q': 'Veranda Restaurant address city center'}": {
    "error": "",
    "response": {
      "status": "OK",
      "request_id": "de534884-7837-4d09-acd1-fd51839b81a9",
      "data": [
        {
          "name": "San Francisco City Hall",
          "address": "Doctor Carlton B Goodlett Place, Civic Center, San Francisco, CA, USA",
          "latitude": 37.779275,
          "longitude": -122.4192417
        },
        {
          "name": "Orpheum Theatre",
          "address": "Market Street, Civic Center, San Francisco, CA, USA",
          "latitude": 37.7792484,
          "longitude": -122.4145912
        },
        {
          "name": "SFJAZZ",
          "address": "Franklin Street, Civic Center, San Francisco, CA, USA",
          "latitude": 37.7764351,
          "longitude": -122.421631
        },
        {
          "name": "Asian Art Museum",
          "address": "Larkin Street, Civic Center, San Francisco, CA, USA",
          "latitude": 37.7802772,
          "longitude": -122.41616049999999
        },
        {
          "name": "San Francisco Opera",
          "address": "Van Ness Avenue, Fillmore District, San Francisco, CA, USA",
          "latitude": 37.7785942,
          "longitude": -122.42086970000001
        },
        {
          "name": "San Francisco Public Library",
          "address": "Larkin Street, Civic Center, San Francisco, CA, USA",
          "latitude": 37.7790819,
          "longitude": -122.41579610000001
        },
        {
          "name": "Hilton Los Angeles North/Glendale & Executive Meeting Ctr",
          "address": "West Glenoaks Boulevard, City Center, Glendale, CA, USA",
          "latitude": 34.1587487,
          "longitude": -118.25651939999999
        },
        {
          "name": "Glendale Galleria",
          "address": "West Broadway, City Center, Glendale, CA, USA",
          "latitude": 34.1462627,
          "longitude": -118.2567687
        },
        {
          "name": "Raffi's Place",
          "address": "East Broadway, City Center, Glendale, CA, USA",
          "latitude": 34.146555899999996,
          "longitude": -118.25345190000002
        },
        {
          "name": "Town Center at Aurora",
          "address": "East Alameda Avenue, City Center, Aurora, CO, USA",
          "latitude": 39.7082577,
          "longitude": -104.82320899999999
        }
      ]
    }
  },
  "{'q': 'beach'}": {
    "error": "",
    "response": {
      "status": "OK",
      "request_id": "cd0904ce-663c-4b79-81b5-45eb49e2e96d",
      "data": [
        {
          "name": "beach volleyball court",
          "address": "Mountain View, CA, USA",
          "latitude": 37.386175099999996,
          "longitude": -122.04916929999997
        },
        {
          "name": "Miami Beach Club",
          "address": "S 1st St, San Jose, USA",
          "latitude": 37.3296493,
          "longitude": -121.8860834
        },
        {
          "name": "Beechwood Computing Ltd",
          "address": "Parking, Old Ironsides Drive, Santa Clara, CA, USA",
          "latitude": 37.398376,
          "longitude": -121.978815
        },
        {
          "name": "Beach Park Plaza parking",
          "address": "Foster City, USA",
          "latitude": 37.5635081,
          "longitude": -122.25022329999999
        },
        {
          "name": "Beach House Hotel",
          "address": "Cabrillo Hwy, El Granada, USA",
          "latitude": 37.5019676,
          "longitude": -122.47436259999999
        },
        {
          "name": "Birchwood Apartments",
          "address": "Henderson Avenue, Sunnyvale, CA, USA",
          "latitude": 37.3541413,
          "longitude": -122.0047342
        },
        {
          "name": "Beach Cove",
          "address": "Catamaran Street, Foster City, CA, USA",
          "latitude": 37.552765099999995,
          "longitude": -122.25995679999998
        },
        {
          "name": "Beach Hut Deli",
          "address": "South Delaware Street, San Mateo, CA, USA",
          "latitude": 37.5544939,
          "longitude": -122.3066124
        },
        {
          "name": "Beach Park Elementary School",
          "address": "Shell Boulevard, Foster City, CA, USA",
          "latitude": 37.550135399999995,
          "longitude": -122.26453529999999
        },
        {
          "name": "Beach Elementary school",
          "address": "Lake Ave, Piedmont, USA",
          "latitude": 37.824543,
          "longitude": -122.2466354
        }
      ]
    }
  },
  "{'q': \"Fisherman's Wharf\"}": {
    "error": "",
    "response": {
      "status": "OK",
      "request_id": "2c693712-d278-4997-bf27-062e78a825a6",
      "data": [
        {
          "name": "Fisherman's Wharf",
          "address": "San Francisco, CA, USA",
          "latitude": 37.8085771,
          "longitude": -122.41252820000001
        },
        {
          "name": "Hotel Riu Plaza Fisherman's Wharf",
          "address": "Mason St, San Francisco, USA",
          "latitude": 37.8071558,
          "longitude": -122.4130557
        },
        {
          "name": "Fisherman's Wharf Monterey",
          "address": "Fisherman's Wharf, Monterey, USA",
          "latitude": 36.6045716,
          "longitude": -121.8925556
        },
        {
          "name": "Fisherman's Wharf Ferry Terminal",
          "address": "The Embarcadero, San Francisco, USA",
          "latitude": 37.8091846,
          "longitude": -122.4122058
        },
        {
          "name": "Fisherman's Wharf Sign",
          "address": "Taylor St, San Francisco, USA",
          "latitude": 37.8083555,
          "longitude": -122.415683
        },
        {
          "name": "Fisherman's Wharf",
          "address": "Leavenworth Street, San Francisco, CA, USA",
          "latitude": 37.807803799999995,
          "longitude": -122.4158868
        },
        {
          "name": "Pier 2620 Hotel, Fisherman's Wharf, San Francisco",
          "address": "Jones St, San Francisco, USA",
          "latitude": 37.8053223,
          "longitude": -122.41705710000001
        },
        {
          "name": "Hyatt Centric Fisherman's Wharf San Francisco",
          "address": "North Point St, San Francisco, USA",
          "latitude": 37.8059771,
          "longitude": -122.41614739999999
        },
        {
          "name": "Hyatt - Fisherman's Wharf Parking",
          "address": "North Point St, San Francisco, USA",
          "latitude": 37.805857800000005,
          "longitude": -122.4157145
        },
        {
          "name": "Fisherman's Wharf Public Parking",
          "address": "Taylor St, San Francisco, USA",
          "latitude": 37.8087028,
          "longitude": -122.41454700000001
        }
      ]
    }
  },
  "{'q': 'Hawaii airport'}": {
    "error": "",
    "response": {
      "status": "OK",
      "request_id": "e765c6f6-0775-47f3-a218-4b29bf5bb61f",
      "data": [
        {
          "name": "Airport Honolulu Hotel",
          "address": "North Nimitz Highway, Honolulu, Hawaii, USA",
          "latitude": 21.3367538,
          "longitude": -157.9175249
        },
        {
          "name": "Airport Beach",
          "address": "Kai Ala Drive, Lahaina, Hawaii, USA",
          "latitude": 20.936576799999997,
          "longitude": -156.6927073
        },
        {
          "name": "Kahului Airport (OGG)",
          "address": "Keolani Place, Kahului, HI, USA",
          "latitude": 20.894598,
          "longitude": -156.4360744
        },
        {
          "name": "Daniel K. Inouye International Airport (HNL)",
          "address": "Rodgers Boulevard, Honolulu, Hawaii, USA",
          "latitude": 21.3186185,
          "longitude": -157.92543809999998
        },
        {
          "name": "Lihue Airport (LIH)",
          "address": "Mokulele Loop, Lihue, Hawaii, USA",
          "latitude": 21.9788489,
          "longitude": -159.3437585
        },
        {
          "name": "Airport Terminal",
          "address": "Kahului, Hawaii, USA",
          "latitude": 20.8933678,
          "longitude": -156.4374924
        },
        {
          "name": "Kona International Airport at Keahole (KOA)",
          "address": "Kupipi Street, Kalaoa, Hawaii, USA",
          "latitude": 19.736916,
          "longitude": -156.0429246
        },
        {
          "name": "Hilo International Airport (ITO)",
          "address": "Kekuanaoa Street, Hilo, Hawaii, USA",
          "latitude": 19.7188342,
          "longitude": -155.0416866
        },
        {
          "name": "Molokai Airport",
          "address": "3980 Airport Loop, Ho'olehua, Hawaii, USA",
          "latitude": 21.1535674,
          "longitude": -157.0963276
        },
        {
          "name": "Kapalua Airport",
          "address": "Hawaii 30, Lahaina, Hawaii, USA",
          "latitude": 20.962211099999998,
          "longitude": -156.67541939999998
        }
      ]
    }
  },
  "{'q': 'Hawaii hotel'}": {
    "error": "",
    "response": {
      "status": "OK",
      "request_id": "e3f4acb8-4705-4a7e-bed3-17ee7c08fa2f",
      "data": [
        {
          "name": "Hawaii Hotel",
          "address": "\u00c7\u0131ld\u0131r, 228. Sokak, Marmaris/Mu\u011fla, T\u00fcrkiye",
          "latitude": 36.8474559,
          "longitude": 28.259507199999998
        },
        {
          "name": "Hawaii Hotel",
          "address": "Ocean Terrace, Miami Beach, FL, USA",
          "latitude": 25.860167699999998,
          "longitude": -80.1202122
        },
        {
          "name": "Hawaii hotel",
          "address": "Yeru\u00e1, San Justo, Buenos Aires Province, Argentina",
          "latitude": -34.689046499999996,
          "longitude": -58.552818599999995
        },
        {
          "name": "Hotel La Croix",
          "address": "Kal\u0101kaua Avenue, Honolulu, Hawaii, USA",
          "latitude": 21.2833111,
          "longitude": -157.8312934
        },
        {
          "name": "Hawaii Hotel By Yunus",
          "address": "\u00c7\u0131ld\u0131r, 228. Sokak, Marmaris/Mu\u011fla, T\u00fcrkiye",
          "latitude": 36.847429999999996,
          "longitude": 28.259032
        },
        {
          "name": "Hawaii Hotel & Suites",
          "address": "Avenida Tom\u00e1s Valle, San Mart\u00edn de Porres, Peru",
          "latitude": -12.011667,
          "longitude": -77.0705378
        },
        {
          "name": "Hawaii Hotel",
          "address": "Ala Moana Boulevard, Honolulu, HI, USA",
          "latitude": 21.2856256,
          "longitude": -157.83914919999998
        },
        {
          "name": "Hawaii Hotel",
          "address": "Paseo Insurgentes Veracruzanos, Faros, Veracruz, Mexico",
          "latitude": 19.200577799999998,
          "longitude": -96.136017
        },
        {
          "name": "Hotel Renew",
          "address": "Paoakalani Avenue, Honolulu, Hawaii, USA",
          "latitude": 21.272804,
          "longitude": -157.8222424
        },
        {
          "name": "Hotel Wailea, Relais & Ch\u00e2teaux",
          "address": "Kaukahi Street, Wailea, Hawaii, USA",
          "latitude": 20.677593299999998,
          "longitude": -156.4319242
        }
      ]
    }
  },
  "{'q': 'Hotels near [selected attraction]'}": {
    "error": "",
    "response": {
      "status": "OK",
      "request_id": "ceda9623-1544-455e-8a3f-b8f5bcfab2dd",
      "data": []
    }
  },
  "{'q': '123 Main Street'}": {
    "error": "",
    "response": {
      "status": "OK",
      "request_id": "32b61cb4-eb03-423b-8899-c963d10f10b4",
      "data": [
        {
          "name": "123 Main Street",
          "address": "Los Altos, CA, USA",
          "latitude": 37.38001,
          "longitude": -122.11463979999999
        },
        {
          "name": "123 Main Street",
          "address": "Pleasanton, CA, USA",
          "latitude": 37.6571388,
          "longitude": -121.87907500000001
        },
        {
          "name": "123 South Main Street",
          "address": "Milpitas, CA, USA",
          "latitude": 37.4289177,
          "longitude": -121.9068605
        },
        {
          "name": "123 Main Street",
          "address": "San Francisco, CA, USA",
          "latitude": 37.791664,
          "longitude": -122.394421
        },
        {
          "name": "123 Main Street",
          "address": "Redwood City, CA, USA",
          "latitude": 37.4928703,
          "longitude": -122.2277493
        },
        {
          "name": "123 West Main Street",
          "address": "Los Gatos, CA, USA",
          "latitude": 37.2218801,
          "longitude": -121.9830745
        },
        {
          "name": "123 East Main Street",
          "address": "Los Gatos, CA, USA",
          "latitude": 37.2215237,
          "longitude": -121.9785345
        },
        {
          "name": "123 South Main Street",
          "address": "Manteca, CA, USA",
          "latitude": 37.7966414,
          "longitude": -121.2168913
        },
        {
          "name": "123 Main Street Driveway",
          "address": "Cupertino, CA, USA",
          "latitude": 37.3244864,
          "longitude": -122.0103527
        },
        {
          "name": "123 Main Street",
          "address": "Half Moon Bay, CA, USA",
          "latitude": 37.4598209,
          "longitude": -122.4298286
        }
      ]
    }
  },
  "{'q': '456 Elm Street'}": {
    "error": "",
    "response": {
      "status": "OK",
      "request_id": "d9e625a7-90e6-4c1f-999a-0511c0f9b026",
      "data": [
        {
          "name": "456 Elm Court",
          "address": "Sunnyvale, CA, USA",
          "latitude": 37.3736719,
          "longitude": -122.0192328
        },
        {
          "name": "456 Elm Street",
          "address": "Woodland, CA, USA",
          "latitude": 38.6758458,
          "longitude": -121.77655310000002
        },
        {
          "name": "456 Elm Street",
          "address": "San Carlos, CA, USA",
          "latitude": 37.4937792,
          "longitude": -122.24921140000001
        },
        {
          "name": "456 Elm Street",
          "address": "San Jose, CA, USA",
          "latitude": 37.3423002,
          "longitude": -121.9197265
        },
        {
          "name": "456 Elm Avenue",
          "address": "Milpitas, CA, USA",
          "latitude": 37.4372618,
          "longitude": -121.91686299999999
        },
        {
          "name": "456 Elm Court",
          "address": "Milpitas, CA, USA",
          "latitude": 37.4370798,
          "longitude": -121.91588139999999
        },
        {
          "name": "456 Elm Street",
          "address": "Menlo Park, CA, USA",
          "latitude": 37.4604972,
          "longitude": -122.1547528
        },
        {
          "name": "456 Elm Street",
          "address": "Newark, CA, USA",
          "latitude": 37.527291399999996,
          "longitude": -122.041308
        },
        {
          "name": "456 Elm Street",
          "address": "Los Gatos, CA, USA",
          "latitude": 37.2236931,
          "longitude": -121.98248629999999
        },
        {
          "name": "456 Elm Avenue",
          "address": "San Bruno, CA, USA",
          "latitude": 37.6212861,
          "longitude": -122.4142738
        }
      ]
    }
  },
  "{'q': '456 Maple Avenue'}": {
    "error": "",
    "response": {
      "status": "OK",
      "request_id": "a56b2c71-e5c2-490d-80a4-b19ab319119d",
      "data": [
        {
          "name": "456 Maple Avenue",
          "address": "Sunnyvale, CA, USA",
          "latitude": 37.389438999999996,
          "longitude": -122.0191672
        },
        {
          "name": "456 Maple Avenue",
          "address": "San Bruno, CA, USA",
          "latitude": 37.617946599999996,
          "longitude": -122.4198045
        },
        {
          "name": "456 Maple Avenue",
          "address": "Ripon, CA, USA",
          "latitude": 37.7429519,
          "longitude": -121.13160699999999
        },
        {
          "name": "456 Maple Avenue",
          "address": "Vallejo, CA, USA",
          "latitude": 38.0957863,
          "longitude": -122.2208922
        },
        {
          "name": "456 Maple Avenue",
          "address": "South San Francisco, CA, USA",
          "latitude": 37.6576285,
          "longitude": -122.4118223
        },
        {
          "name": "456 Maple Avenue",
          "address": "Campbell, CA, USA",
          "latitude": 37.3443995,
          "longitude": -121.9309617
        },
        {
          "name": "456 Maple Street",
          "address": "Palo Alto, CA, USA",
          "latitude": 37.4569774,
          "longitude": -122.1493388
        },
        {
          "name": "456 Maple Avenue",
          "address": "Atherton, CA, USA",
          "latitude": 37.461483699999995,
          "longitude": -122.19698559999998
        },
        {
          "name": "456 Maple Drive",
          "address": "Saratoga, CA, USA",
          "latitude": 37.2524736,
          "longitude": -122.0358012
        },
        {
          "name": "456 Maple Street",
          "address": "Redwood City, CA, USA",
          "latitude": 37.4875816,
          "longitude": -122.22302829999998
        }
      ]
    }
  },
  "{'q': '789 Oak Street'}": {
    "error": "",
    "response": {
      "status": "OK",
      "request_id": "a7f1cdaa-607b-4e2b-b4c7-ea0305f69fac",
      "data": [
        {
          "name": "789 Oak Street",
          "address": "Mountain View, CA, USA",
          "latitude": 37.3913576,
          "longitude": -122.0846405
        },
        {
          "name": "789 Red Oak Drive",
          "address": "Sunnyvale, CA, USA",
          "latitude": 37.3709668,
          "longitude": -122.0099644
        },
        {
          "name": "789 Oak Street",
          "address": "Monterey, CA, USA",
          "latitude": 36.6123696,
          "longitude": -121.9094197
        },
        {
          "name": "789 Oak Street",
          "address": "Oakland, CA, USA",
          "latitude": 37.7962525,
          "longitude": -122.26589150000001
        },
        {
          "name": "789 Oak Street",
          "address": "San Francisco, CA, USA",
          "latitude": 37.773222,
          "longitude": -122.4369005
        },
        {
          "name": "789 Oak Street",
          "address": "Brentwood, CA, USA",
          "latitude": 37.9331301,
          "longitude": -121.69392160000001
        },
        {
          "name": "789 Oak Street",
          "address": "Saratoga, CA, USA",
          "latitude": 37.256017199999995,
          "longitude": -122.03373079999999
        },
        {
          "name": "789 Oak Street",
          "address": "San Jose, CA, USA",
          "latitude": 37.3209283,
          "longitude": -121.8830385
        },
        {
          "name": "789 Oak Grove Avenue",
          "address": "Menlo Park, CA, USA",
          "latitude": 37.4598875,
          "longitude": -122.18002120000001
        },
        {
          "name": "789 Oak Avenue",
          "address": "Redwood City, CA, USA",
          "latitude": 37.4714514,
          "longitude": -122.23126810000001
        }
      ]
    }
  },
  "{'q': '456 Elm Avenue'}": {
    "error": "",
    "response": {
      "status": "OK",
      "request_id": "b3012ce8-e81a-4c6e-905c-1e0e7356e147",
      "data": [
        {
          "name": "456 Elm Avenue",
          "address": "San Bruno, CA, USA",
          "latitude": 37.6212861,
          "longitude": -122.4142738
        },
        {
          "name": "456 Elm Court",
          "address": "Sunnyvale, CA, USA",
          "latitude": 37.3736719,
          "longitude": -122.0192328
        },
        {
          "name": "456 Elm Avenue",
          "address": "Milpitas, CA, USA",
          "latitude": 37.4372618,
          "longitude": -121.91686299999999
        },
        {
          "name": "456 Elm Avenue",
          "address": "Manteca, CA, USA",
          "latitude": 37.804327799999996,
          "longitude": -121.22296349999999
        },
        {
          "name": "456 Elm Avenue",
          "address": "Long Beach, CA, USA",
          "latitude": 33.7727541,
          "longitude": -118.18728130000001
        },
        {
          "name": "456 Elm Avenue",
          "address": "Atwater, CA, USA",
          "latitude": 37.345789499999995,
          "longitude": -120.59965760000001
        },
        {
          "name": "456 Elm Avenue",
          "address": "Seaside, CA, USA",
          "latitude": 36.6076445,
          "longitude": -121.8431046
        },
        {
          "name": "456 Elm Court",
          "address": "Milpitas, CA, USA",
          "latitude": 37.4370798,
          "longitude": -121.91588139999999
        },
        {
          "name": "456 Elm Avenue",
          "address": "Chula Vista, CA, USA",
          "latitude": 32.6374256,
          "longitude": -117.07234589999999
        },
        {
          "name": "456 Elm Street",
          "address": "San Carlos, CA, USA",
          "latitude": 37.4937792,
          "longitude": -122.24921140000001
        }
      ]
    }
  },
  "{'q': 'My Home'}": {
    "error": "",
    "response": {
      "status": "OK",
      "request_id": "547ca871-810e-46f8-b0dd-81233b95f28a",
      "data": [
        {
          "name": "my Home Care Center",
          "address": "South De Anza Boulevard, Cupertino, CA, USA",
          "latitude": 37.321353699999996,
          "longitude": -122.03288549999999
        },
        {
          "name": "My Home",
          "address": "Sugar Beet Way, Union City, CA, USA",
          "latitude": 37.6021437,
          "longitude": -122.07111649999999
        },
        {
          "name": "My Home Loan San Jose",
          "address": "South Bascom Avenue, Campbell, CA, USA",
          "latitude": 37.2959341,
          "longitude": -121.93228939999999
        },
        {
          "name": "USA MY HOME",
          "address": "United States, California, Milpitas, Silverlake Drive",
          "latitude": 37.4359848,
          "longitude": -121.90224979999999
        },
        {
          "name": "my Home Care Center",
          "address": "Howard Avenue, Burlingame, CA, USA",
          "latitude": 37.5798185,
          "longitude": -122.342588
        },
        {
          "name": "MY HOME AVATAR",
          "address": "Hyderabad, Telangana, India",
          "latitude": 17.3988794,
          "longitude": 78.3554219
        },
        {
          "name": "My Home Mangala",
          "address": "Hyderabad, Serilingampalle (M), Telangana, India",
          "latitude": 17.4747952,
          "longitude": 78.3468868
        },
        {
          "name": "My Home Chinese Restaurant",
          "address": "Imperial Hwy, Downey",
          "latitude": 33.9178162,
          "longitude": -118.1406784
        },
        {
          "name": "MY HOME JEWEL",
          "address": "Hafeezpet, Hyderabad, Madeenaguda, Telangana",
          "latitude": 17.491718499999998,
          "longitude": 78.3376396
        },
        {
          "name": "My Home Tarkshya",
          "address": "Kokapet, Narsingi, Telangana, India",
          "latitude": 17.391539299999998,
          "longitude": 78.33888449999999
        }
      ]
    }
  },
  "{'q': 'airport'}": {
    "error": "",
    "response": {
      "status": "OK",
      "request_id": "e3fb9844-c4a3-433d-8499-0b0fd5311029",
      "data": [
        {
          "name": "Airport Home Appliance",
          "address": "S Bascom Ave, San Jose",
          "latitude": 37.3082006,
          "longitude": -121.93145909999998
        },
        {
          "name": "Berry Airport Shuttle",
          "address": "Pasito Terrace, Sunnyvale, CA, USA",
          "latitude": 37.3822417,
          "longitude": -122.0399285
        },
        {
          "name": "Airport Place",
          "address": "Technology Dr, San Jose",
          "latitude": 37.367288800000004,
          "longitude": -121.91989190000001
        },
        {
          "name": "Airport Boulevard",
          "address": "San Jose, CA, USA",
          "latitude": 37.3640726,
          "longitude": -121.9228017
        },
        {
          "name": "Airport Limo Chauffeur",
          "address": "Tamarack Lane, Sunnyvale, CA, USA",
          "latitude": 37.35696,
          "longitude": -122.00085
        },
        {
          "name": "San Francisco International Airport (SFO)",
          "address": "San Francisco, CA, USA",
          "latitude": 37.6191671,
          "longitude": -122.38161079999999
        },
        {
          "name": "Airport Parkway",
          "address": "San Jose, CA, USA",
          "latitude": 37.3693592,
          "longitude": -121.92768929999998
        },
        {
          "name": "Palo Alto Airport",
          "address": "Embarcadero Road, Palo Alto, CA, USA",
          "latitude": 37.4550078,
          "longitude": -122.1107903
        },
        {
          "name": "Airport Home Appliance",
          "address": "Broadway, Redwood City",
          "latitude": 37.486959999999996,
          "longitude": -122.22218999999998
        }
      ]
    }
  },
  "{'q': \"friend's house San Jose\"}": {
    "error": "",
    "response": {
      "status": "OK",
      "request_id": "ce14531c-a5be-4ce9-8b00-68b1d07adf61",
      "data": [
        {
          "name": "Friends House Licores",
          "address": "Avenida 6, Urbanizacion Prados Este, Cucuta, North Santander, Colombia",
          "latitude": 7.9112597,
          "longitude": -72.4721752
        }
      ]
    }
  },
  "{'q': \"nearby landmarks near friend's house\"}": {
    "error": "",
    "response": {
      "status": "OK",
      "request_id": "dc2a96e7-6438-434e-ac2f-2b370a48a6a9",
      "data": []
    }
  },
  "{'q': \"popular locations near friend's house\"}": {
    "error": "",
    "response": {
      "status": "OK",
      "request_id": "1867b630-7a3b-4110-91fb-60c3a0e7f53c",
      "data": []
    }
  },
  "{'q': \"points of interest near friend's house\"}": {
    "error": "",
    "response": {
      "status": "OK",
      "request_id": "e81da2fc-ce9b-486c-86bc-a95cd74928f3",
      "data": []
    }
  },
  "{'q': \"friend's house San Diego\"}": {
    "error": "",
    "response": {
      "status": "OK",
      "request_id": "58b8555a-1536-450d-9a29-b210e03c2a39",
      "data": [
        {
          "name": "Friend's house",
          "address": "Convoy St, San Diego",
          "latitude": 32.8253366,
          "longitude": -117.1547779
        }
      ]
    }
  },
  "{'q': \"friend's house San Diego street name\"}": {
    "error": "",
    "response": {
      "status": "OK",
      "request_id": "27388ab4-1e1d-4af6-8de0-59c89a43ba77",
      "data": [
        {
          "name": "Friend's house",
          "address": "Convoy St, San Diego",
          "latitude": 32.8253366,
          "longitude": -117.1547779
        }
      ]
    }
  },
  "{'q': \"friend's house San Diego, CA\"}": {
    "error": "",
    "response": {
      "status": "OK",
      "request_id": "abaa3a6d-f6a6-42ec-b0eb-e37744181812",
      "data": [
        {
          "name": "Friend's House Korean",
          "address": "Convoy Street, San Diego, CA, USA",
          "latitude": 32.8253322,
          "longitude": -117.1547059
        }
      ]
    }
  },
  "{'q': \"<friend's house address>\"}": {
    "error": "",
    "response": {
      "status": "OK",
      "request_id": "3f1c8ec4-2893-4214-9df4-115cccc7c28e",
      "data": []
    }
  },
  "{'q': '<airport name>'}": {
    "error": "",
    "response": {
      "status": "OK",
      "request_id": "c4394a34-d03c-4ad9-8eec-66ea11a08fd7",
      "data": [
        {
          "name": "Martinique Aim\u00e9 C\u00e9saire International Airport",
          "address": "BP279, Le Lamentin, Martinique",
          "latitude": 14.5956143,
          "longitude": -61.000243899999994
        },
        {
          "name": "Name - Less Pub",
          "address": "Chaani - Mlolngo Area, Changamwe Area, Corner Chaani Road, Airport Road, Mombasa, Kenya",
          "latitude": -4.0332215,
          "longitude": 39.626144599999996
        },
        {
          "name": "Name Less Wines & Spirits",
          "address": "Airport North Road, Nairobi, Kenya",
          "latitude": -1.3222603,
          "longitude": 36.894152
        },
        {
          "name": "Name Of Brand Shoes Collection",
          "address": "Airport Road, Ujalaiwadi, Kolhapur, Maharashtra, India",
          "latitude": 16.6675374,
          "longitude": 74.2702413
        }
      ]
    }
  },
  "{'q': 'Miami airport'}": {
    "error": "",
    "response": {
      "status": "OK",
      "request_id": "0dfe63c7-e629-4299-9a94-93b7f967edff",
      "data": [
        {
          "name": "Miami International Airport (MIA) (MIA)",
          "address": "Northwest 42nd Avenue, Miami, FL, USA",
          "latitude": 25.795145899999998,
          "longitude": -80.27950919999999
        },
        {
          "name": "Miami Airport Marriott",
          "address": "NW Le Jeune Rd, Miami, FL, USA",
          "latitude": 25.784108999999997,
          "longitude": -80.2624202
        },
        {
          "name": "Miami Airport Convention Center",
          "address": "NW 72nd Ave, Miami",
          "latitude": 25.778948999999997,
          "longitude": -80.3095575
        },
        {
          "name": "Park N Fly - Airport Parking lot",
          "address": "NW 28th St, Miami",
          "latitude": 25.802106499999997,
          "longitude": -80.26092369999999
        },
        {
          "name": "Miami Airport Convention Center Parking",
          "address": "Miami",
          "latitude": 25.780171199999998,
          "longitude": -80.3096394
        },
        {
          "name": "Miami Airport Station",
          "address": "Northwest 21st Street, Miami, FL, USA",
          "latitude": 25.7971531,
          "longitude": -80.25760009999999
        },
        {
          "name": "Miami Airport Station",
          "address": "Northwest 21st Street, Miami, FL, USA",
          "latitude": 25.796192299999998,
          "longitude": -80.2583063
        },
        {
          "name": "Courtyard - Miami Airport West/Doral",
          "address": "NW 79th Ave, Doral",
          "latitude": 25.810040599999997,
          "longitude": -80.32425549999999
        },
        {
          "name": "Miami Airport Center",
          "address": "NW 25th St, Miami",
          "latitude": 25.7963427,
          "longitude": -80.3195012
        },
        {
          "name": "Miami Airport",
          "address": "Northwest 21st Street, Miami, FL, USA",
          "latitude": 25.797261700000004,
          "longitude": -80.25752270000001
        }
      ]
    }
  },
  "{'q': 'hotel in Miami'}": {
    "error": "",
    "response": {
      "status": "OK",
      "request_id": "2a44acc0-2e61-4e55-ad41-da42f6ab81cb",
      "data": [
        {
          "name": "Stadium Hotel",
          "address": "Northwest 27th Avenue, Miami Gardens, FL, USA",
          "latitude": 25.971119599999998,
          "longitude": -80.24497319999999
        },
        {
          "name": "Ramada by Wyndham Miami Springs/Miami International Airport",
          "address": "Northwest 36th Street, Miami Springs, FL, USA",
          "latitude": 25.808350599999997,
          "longitude": -80.277952
        },
        {
          "name": "Miami International Airport Hotel",
          "address": "Miami International Airport Hotel, Le Jeune Rd, Concourse E 2nd Floor, Northwest 20th Street, Miami, FL, USA",
          "latitude": 25.7951211,
          "longitude": -80.2785835
        },
        {
          "name": "Miami Airport Marriott",
          "address": "NW Le Jeune Rd, Miami, FL, USA",
          "latitude": 25.784108999999997,
          "longitude": -80.2624202
        },
        {
          "name": "Embassy Suites by Hilton Miami International Airport",
          "address": "Northwest South River Drive, Miami, FL, USA",
          "latitude": 25.8066574,
          "longitude": -80.2615857
        },
        {
          "name": "H\u00f4tel Gaythering",
          "address": "Lincoln Road, Miami Beach, FL, USA",
          "latitude": 25.7905405,
          "longitude": -80.1437641
        },
        {
          "name": "Cadillac Hotel & Beach Club, Autograph Collection",
          "address": "Collins Avenue, Miami Beach, FL, USA",
          "latitude": 25.812034099999998,
          "longitude": -80.1228024
        },
        {
          "name": "Ramada Plaza by Wyndham Marco Polo Beach Resort",
          "address": "Collins Avenue, Sunny Isles Beach, FL, USA",
          "latitude": 25.954471599999998,
          "longitude": -80.11974699999999
        },
        {
          "name": "Mills Park Hotel",
          "address": "Xenia Avenue, Yellow Springs, Miami Township, OH, USA",
          "latitude": 39.8038155,
          "longitude": -83.8898608
        },
        {
          "name": "Hotel Miami",
          "address": "Lim\u00f3n Centro, Lim\u00f3n",
          "latitude": 9.9917455,
          "longitude": -83.029399
        }
      ]
    }
  },
  "{'q': 'attractions in Miami'}": {
    "error": "",
    "response": {
      "status": "OK",
      "request_id": "c91fc5b0-50ee-4f55-b246-f33d27774058",
      "data": [
        {
          "name": "Dolphin Mall",
          "address": "Northwest 12th Street, Miami, FL, USA",
          "latitude": 25.787777799999997,
          "longitude": -80.3805556
        },
        {
          "name": "Fresh Attractions",
          "address": "Miami International Airport, Terminal E (Satellite), Gate E30, NW 42nd Ave, Miami, FL, USA",
          "latitude": 25.796720900000004,
          "longitude": -80.27573389999999
        },
        {
          "name": "Main Attraction Beauty Academy",
          "address": "North Main Street, Miami, OK, USA",
          "latitude": 36.8751792,
          "longitude": -94.87771599999999
        }
      ]
    }
  },
  "{'q': 'gas stations Miami'}": {
    "error": "",
    "response": {
      "status": "OK",
      "request_id": "b0d5b7e1-04b9-41a7-8d4a-855702b85d98",
      "data": []
    }
  },
  "{'q': 'hotels in Miami'}": {
    "error": "",
    "response": {
      "status": "OK",
      "request_id": "da44216a-044f-4b60-8e62-d1cc226fbb0b",
      "data": [
        {
          "name": "Hampton Inn & Suites by Hilton Miami Brickell Downtown",
          "address": "Southwest 12th Street, Miami, FL, USA",
          "latitude": 25.762362399999997,
          "longitude": -80.19407199999999
        },
        {
          "name": "Paola Inn and Suites",
          "address": "Hedge Lane Court, Paola, Miami County, KS, USA",
          "latitude": 38.5694581,
          "longitude": -94.857889
        },
        {
          "name": "HOTELS",
          "address": "Southwest 27th Avenue, Miami, FL, USA",
          "latitude": 25.745758,
          "longitude": -80.23777
        },
        {
          "name": "hotels",
          "address": "Bay Road, Miami Beach, FL, USA",
          "latitude": 25.7897031,
          "longitude": -80.14388330000001
        },
        {
          "name": "D.O.G. HOTELS - Miami Shores",
          "address": "Northeast 2nd Avenue, Miami, FL, USA",
          "latitude": 25.851038499999998,
          "longitude": -80.1926936
        },
        {
          "name": "Omni Hotels & Resorts Reservation Center",
          "address": "Miami Street, Omaha, NE, USA",
          "latitude": 41.282163,
          "longitude": -96.0984132
        },
        {
          "name": "Hotels and resorts",
          "address": "Lenaire Drive, Cutler Bay, Miami-Dade, FL, USA",
          "latitude": 25.5926841,
          "longitude": -80.3546633
        }
      ]
    }
  },
  "{'q': 'gas stations in Miami'}": {
    "error": "",
    "response": {
      "status": "OK",
      "request_id": "b0b13f83-2eee-4f7c-8679-25cc93f160a0",
      "data": [
        {
          "name": "Miami State Recreation Area",
          "address": "East 500 South, Peru, IN, USA",
          "latitude": 40.700299799999996,
          "longitude": -85.9406798
        },
        {
          "name": "Miami Correctional Facility",
          "address": "West 850 South, Bunker Hill, IN, USA",
          "latitude": 40.644364599999996,
          "longitude": -86.1328719
        },
        {
          "name": "Miami County",
          "address": "IN, USA",
          "latitude": 40.770098999999995,
          "longitude": -86.05296039999999
        },
        {
          "name": "Gas pump",
          "address": "Ankleshwar GIDC, Piraman, Gujarat, IN",
          "latitude": 21.6155926,
          "longitude": 73.0056821
        },
        {
          "name": "Petrol station",
          "address": "Balajy Colony, Tirumala, Tirupati, Andhra Pradesh, IN",
          "latitude": 13.6758873,
          "longitude": 79.35076719999999
        },
        {
          "name": "Lpg Filling Stations",
          "address": "St Mark's Rd, Srinivas Nagar, Shanthala Nagar, Ashok Nagar, Bengaluru, Karnataka, IN",
          "latitude": 12.968239899999999,
          "longitude": 77.6002609
        },
        {
          "name": "University of Miami School of Law",
          "address": "Miller Drive, Coral Gables, FL, USA",
          "latitude": 25.720622000000002,
          "longitude": -80.28046479999999
        },
        {
          "name": "Miami Convention Centre",
          "address": "Kozhikode-Kuttiyadi Road Thalakkulathur, Andikode, Kerala, IN",
          "latitude": 11.3607325,
          "longitude": 75.7570458
        },
        {
          "name": "Mankar stations",
          "address": "Mankar Road, Mankar, West Bengal, IN",
          "latitude": 23.419331399999997,
          "longitude": 87.5567914
        }
      ]
    }
  },
  "{'q': '<hotel_address>'}": {
    "error": "",
    "response": {
      "status": "OK",
      "request_id": "e123f652-74ba-498c-9181-5b8837bcabc4",
      "data": [
        {
          "name": "Hotel Edison",
          "address": "West 47th Street, New York, NY, USA",
          "latitude": 40.7597355,
          "longitude": -73.9861511
        },
        {
          "name": "Town and Country San Diego",
          "address": "Hotel Circle North, San Diego, CA, USA",
          "latitude": 32.762938,
          "longitude": -117.16779679999999
        },
        {
          "name": "The Address Hotel Connolly",
          "address": "Amiens Street, Mountjoy, Dublin 1, Ireland",
          "latitude": 53.3517733,
          "longitude": -6.250032999999999
        },
        {
          "name": "Diamond Hotel Philippines",
          "address": "Roxas Boulevard, Corner Dr. J. Quintos Street, Malate, Manila, Metro Manila, Philippines",
          "latitude": 14.572442,
          "longitude": 120.98217600000001
        },
        {
          "name": "Address Downtown",
          "address": "Sheikh Mohammed bin Rashid Boulevard - Dubai - United Arab Emirates",
          "latitude": 25.1936328,
          "longitude": 55.279070999999995
        },
        {
          "name": "Address Fountain Views",
          "address": "Al Ohood Street - Sheikh Mohammed bin Rashid Boulevard - Dubai - United Arab Emirates",
          "latitude": 25.1948261,
          "longitude": 55.282859599999995
        },
        {
          "name": "Address Sky View",
          "address": "Emaar Square Area - Dubai - United Arab Emirates",
          "latitude": 25.201591399999998,
          "longitude": 55.270538099999996
        },
        {
          "name": "Address Dubai Marina",
          "address": "Al Marsa Street - Dubai - United Arab Emirates",
          "latitude": 25.0771646,
          "longitude": 55.1405298
        },
        {
          "name": "Address Boulevard",
          "address": "Sheikh Mohammed bin Rashid Boulevard - Dubai - United Arab Emirates",
          "latitude": 25.2009677,
          "longitude": 55.2762069
        },
        {
          "name": "Address Dubai Mall",
          "address": "Sheikh Mohammed bin Rashid Boulevard - Dubai - United Arab Emirates",
          "latitude": 25.199842900000004,
          "longitude": 55.277452
        }
      ]
    }
  },
  "{'q': '<hotel_name>, Miami'}": {
    "error": "",
    "response": {
      "status": "OK",
      "request_id": "9815a9f6-fbdb-49a8-8482-e4471470836e",
      "data": []
    }
  },
  "{'q': '<hotel_address>, Miami'}": {
    "error": "",
    "response": {
      "status": "OK",
      "request_id": "c7dbca39-a606-4001-ba3d-2a28593b432c",
      "data": []
    }
  },
  "{'q': '<hotel_name>'}": {
    "error": "",
    "response": {
      "status": "OK",
      "request_id": "e8d9e3e7-e9dc-40fd-9804-438eb9d71743",
      "data": [
        {
          "name": "Hotel name changed \" Hotel Palace\"",
          "address": "Hampyeongcheonu-gil, Hampyeong-eup, Hampyeong-gun, Jeollanam-do, South Korea",
          "latitude": 35.0630343,
          "longitude": 126.52412129999999
        },
        {
          "name": "Hotel Name",
          "address": "Sector 20, Kamothe, Panvel, Navi Mumbai, Maharashtra, India",
          "latitude": 19.016622299999998,
          "longitude": 73.0966019
        },
        {
          "name": "Hotel name needs to be changed",
          "address": "Thambiah Road, near SRM hospital, Gokulam Colony, Ramakrishnapuram, West Mambalam, Chennai, Tamil Nadu, India",
          "latitude": 13.0405685,
          "longitude": 80.2244971
        },
        {
          "name": "NAME PLATE & STICKERS",
          "address": "OLD NATRAJ, Hotel Street, Bapu Bazar, Ganesh Ghati, Udaipur, Rajasthan, India",
          "latitude": 24.5806455,
          "longitude": 73.6960649
        }
      ]
    }
  },
  "{'q': 'nearest beach', 'lang': 'en'}": {
    "error": "",
    "response": {
      "status": "OK",
      "request_id": "eddb94ab-a648-4c19-9f78-5b74f557c4bc",
      "data": [
        {
          "name": "Goa International Airport (GOI)",
          "address": "Airport Rd, Dabolim, Goa, India",
          "latitude": 15.380348499999998,
          "longitude": 73.8349952
        },
        {
          "name": "Cotswold Country Park & Beach",
          "address": "Spratsgate Lane, Shorncote, Cirencester, UK",
          "latitude": 51.6616394,
          "longitude": -1.9644297
        },
        {
          "name": "Nearest Road",
          "address": "Columbiana, AL, USA",
          "latitude": 33.206709,
          "longitude": -86.7188022
        },
        {
          "name": "Nearest Lane",
          "address": "Columbiana, AL, USA",
          "latitude": 33.205892,
          "longitude": -86.719701
        }
      ]
    }
  },
  "{'q': 'nearest beach'}": {
    "error": "",
    "response": {
      "status": "OK",
      "request_id": "a372ede5-de8b-4a3f-ae34-2597067ffc98",
      "data": [
        {
          "name": "Goa International Airport (GOI)",
          "address": "Airport Rd, Dabolim, Goa, India",
          "latitude": 15.380348499999998,
          "longitude": 73.8349952
        },
        {
          "name": "Cotswold Country Park & Beach",
          "address": "Spratsgate Lane, Shorncote, Cirencester, UK",
          "latitude": 51.6616394,
          "longitude": -1.9644297
        },
        {
          "name": "Nearest Road",
          "address": "Columbiana, AL, USA",
          "latitude": 33.206709,
          "longitude": -86.7188022
        },
        {
          "name": "Nearest Lane",
          "address": "Columbiana, AL, USA",
          "latitude": 33.205892,
          "longitude": -86.719701
        }
      ]
    }
  },
  "{'q': 'home to the nearest beach'}": {
    "error": "",
    "response": {
      "status": "OK",
      "request_id": "2ed895b9-5a69-4c82-a82e-5036507b4bae",
      "data": []
    }
  },
  "{'q': 'family trip to the beach'}": {
    "error": "",
    "response": {
      "status": "OK",
      "request_id": "7f031cbc-0275-4ad4-adbd-fef9a350950b",
      "data": [
        {
          "name": "The Beach",
          "address": "Via, Murazzi del Po Gipo Farassino, Turin, TO, Italy",
          "latitude": 45.0651502,
          "longitude": 7.698440799999999
        },
        {
          "name": "Back on the Beach Cafe",
          "address": "California 1, Santa Monica, CA, USA",
          "latitude": 34.023750299999996,
          "longitude": -118.5129471
        },
        {
          "name": "The Beach House & Coral Cottage",
          "address": "Fofoa Island, Neiafu, Tonga",
          "latitude": -18.706069,
          "longitude": -174.139094
        },
        {
          "name": "Diva Beach",
          "address": "Avenue de la Plage, Biscarrosse-Plage (Biscarrosse)",
          "latitude": 44.4444441,
          "longitude": -1.2529636
        },
        {
          "name": "Blue to the Beach Charters",
          "address": "Texas, USA",
          "latitude": 29.0209858,
          "longitude": -95.3259266
        },
        {
          "name": "To the beach Tree",
          "address": "Carretera de l'Arenal, Palma, Spain",
          "latitude": 39.5233396,
          "longitude": 2.7379312
        },
        {
          "name": "Bridges to the Beaches, LLC",
          "address": "Hudson Avenue, Wildwood, NJ, USA",
          "latitude": 38.988281799999996,
          "longitude": -74.8297225
        },
        {
          "name": "Bike to the Beach",
          "address": "K Street Northwest, Washington, DC, USA",
          "latitude": 38.9019271,
          "longitude": -77.0445214
        },
        {
          "name": "Ragnar Reach The Beach",
          "address": "Ski Area Road, Bretton Woods, NH, USA",
          "latitude": 44.2605037,
          "longitude": -71.45903659999999
        },
        {
          "name": "El Bajondillo to the beach",
          "address": "Calle San Miguel, Torremolinos, Spain",
          "latitude": 36.6220589,
          "longitude": -4.4972934
        }
      ]
    }
  },
  "{'q': 'home address', 'lang': 'en', 'coordinates': 'lat,long'}": {
    "error": "",
    "response": {
      "status": "OK",
      "request_id": "8de1b115-9ef7-484b-86ba-d4740edb41ae"
    }
  },
  "{'q': 'our home address', 'lang': 'en', 'coordinates': '37.381315,-122.046148'}": {
    "error": "",
    "response": {
      "status": "OK",
      "request_id": "9b6422f3-b9cb-4fd4-b9d1-57ba617c6cc4",
      "data": []
    }
  },
  "{'q': 'beach volleyball court, Mountain View, CA'}": {
    "error": "",
    "response": {
      "status": "OK",
      "request_id": "5985afa2-bfb7-4865-b3d6-19c89a9681e6",
      "data": [
        {
          "name": "beach volleyball court",
          "address": "Mountain View, CA, USA",
          "latitude": 37.386175099999996,
          "longitude": -122.04916929999997
        }
      ]
    }
  },
  "{'q': 'beach volleyball court, San Jose, CA'}": {
    "error": "",
    "response": {
      "status": "OK",
      "request_id": "7d5e3969-a513-47b9-b0ae-77a9602a2ae7",
      "data": [
        {
          "name": "beach volleyball court",
          "address": "Mountain View, CA, USA",
          "latitude": 37.386175099999996,
          "longitude": -122.04916929999997
        },
        {
          "name": "Japanese Food Court",
          "address": "San Jose, California, USA",
          "latitude": 37.3148577,
          "longitude": -121.97777800000001
        },
        {
          "name": "Santa Clara County Family Court",
          "address": "North First Street, San Jose, California, USA",
          "latitude": 37.3389816,
          "longitude": -121.893898
        },
        {
          "name": "US Bankruptcy Court Clerk Northern California District",
          "address": "South 1st Street, San Jose, California, USA",
          "latitude": 37.3322788,
          "longitude": -121.88723739999999
        },
        {
          "name": "Court Sergio B MD",
          "address": "North 14th Street, San Jose, California, USA",
          "latitude": 37.3429654,
          "longitude": -121.8779189
        },
        {
          "name": "Beach Volleyball Court",
          "address": "Unnamed Road, Livermore, California, USA",
          "latitude": 37.6892936,
          "longitude": -121.70414
        },
        {
          "name": "Santa Cruz Beach Boardwalk",
          "address": "Beach Street, Santa Cruz, California, USA",
          "latitude": 36.9643103,
          "longitude": -122.01868390000001
        },
        {
          "name": "Diamond Beach Inc",
          "address": "Will Wool Drive, San Jose, California, USA",
          "latitude": 37.313164,
          "longitude": -121.84823399999999
        },
        {
          "name": "Magowan's Infinite Mirror Maze",
          "address": "Beach Street, San Francisco, California, USA",
          "latitude": 37.8100217,
          "longitude": -122.41023990000001
        },
        {
          "name": "Beach Volleyball Courts",
          "address": "Davis, California, USA",
          "latitude": 38.544998899999996,
          "longitude": -121.7495669
        }
      ]
    }
  },
  "{'q': 'Mountain View, CA'}": {
    "error": "",
    "response": {
      "status": "OK",
      "request_id": "66d8a8be-66e0-4398-9242-d47ae7eb5b3c",
      "data": [
        {
          "name": "Mountain View",
          "address": "CA, USA",
          "latitude": 37.386051699999996,
          "longitude": -122.0838511
        },
        {
          "name": "Caltrain Mountain View Station",
          "address": "West Evelyn Avenue, Mountain View, CA, USA",
          "latitude": 37.3947717,
          "longitude": -122.07779690000001
        },
        {
          "name": "Castro Street",
          "address": "Mountain View, CA, USA",
          "latitude": 37.388342699999995,
          "longitude": -122.08235369999998
        },
        {
          "name": "Courtyard by Marriott Sunnyvale Mountain View",
          "address": "W El Camino Real, Sunnyvale",
          "latitude": 37.3691677,
          "longitude": -122.0393221
        },
        {
          "name": "Cascal",
          "address": "California St, Mountain View",
          "latitude": 37.3913231,
          "longitude": -122.08118440000001
        },
        {
          "name": "Mountain View Caltrain",
          "address": "West Evelyn Avenue, Mountain View, CA, USA",
          "latitude": 37.3945523,
          "longitude": -122.0760376
        },
        {
          "name": "California Skin Institute",
          "address": "South Knickerbocker Drive, Mountain View, CA, USA",
          "latitude": 37.3740978,
          "longitude": -122.05857970000001
        },
        {
          "name": "Cafe Terrace",
          "address": "West Dana Street, Mountain View, CA, USA",
          "latitude": 37.3931822,
          "longitude": -122.08158999999999
        },
        {
          "name": "Cafe 86 - Mt View",
          "address": "Villa Street, Mountain View, CA, USA",
          "latitude": 37.393634,
          "longitude": -122.07824079999999
        },
        {
          "name": "Mountain View Candle Company",
          "address": "Mountain View Avenue, Mountain View, CA, USA",
          "latitude": 37.3946343,
          "longitude": -122.08562519999998
        }
      ]
    }
  },
  "{'q': 'beach volleyball court'}": {
    "error": "",
    "response": {
      "status": "OK",
      "request_id": "015a2f2b-353d-4f8a-8b5c-9e19f05a5155",
      "data": [
        {
          "name": "beach volleyball court",
          "address": "Mountain View, CA, USA",
          "latitude": 37.386175099999996,
          "longitude": -122.04916929999997
        },
        {
          "name": "Beach Volleyball Court | Mission Creek Park",
          "address": "San Francisco, CA, USA",
          "latitude": 37.771121199999996,
          "longitude": -122.3980521
        },
        {
          "name": "Beach Volleyball Court | Catamaran Park",
          "address": "Catamaran Street, Foster City, CA, USA",
          "latitude": 37.5525027,
          "longitude": -122.26469469999999
        },
        {
          "name": "Beach Volleyball Court",
          "address": "Unnamed Road, Livermore, CA, USA",
          "latitude": 37.6892936,
          "longitude": -121.70414
        },
        {
          "name": "West Valley Beach Volleyball Courts",
          "address": "East College Circle, Saratoga, CA, USA",
          "latitude": 37.261021299999996,
          "longitude": -122.00867670000001
        },
        {
          "name": "Santa Cruz Beach Volleyball Club - Rio Courts",
          "address": "Beach Drive, Aptos, CA, USA",
          "latitude": 36.963389899999996,
          "longitude": -121.8960875
        },
        {
          "name": "Beach Volleyball Courts",
          "address": "Davis, CA, USA",
          "latitude": 38.544998899999996,
          "longitude": -121.7495669
        },
        {
          "name": "Harbor Beach Volleyball Courts",
          "address": "East Cliff Drive, Santa Cruz, CA, USA",
          "latitude": 36.963001,
          "longitude": -122.0008957
        },
        {
          "name": "Beach Volleyball Courts - North Avenue Beach",
          "address": "North Lake Shore Drive, Chicago, IL, USA",
          "latitude": 41.9189375,
          "longitude": -87.62851719999999
        }
      ]
    }
  },
  "{'q': 'Golden Gate Bridge', 'lang': 'en', 'coordinates': '37.8126945,-122.4776764'}": {
    "error": "",
    "response": {
      "status": "OK",
      "request_id": "4fba7482-8fd0-42c5-b06d-ad399d1677c6",
      "data": [
        {
          "name": "Golden Gate Bridge",
          "address": "Golden Gate Br, San Francisco",
          "latitude": 37.8126945,
          "longitude": -122.47767640000001
        },
        {
          "name": "Golden Gate Bridge Vista Point",
          "address": "San Francisco, CA, USA",
          "latitude": 37.8077876,
          "longitude": -122.4752007
        },
        {
          "name": "Golden Gate Bridge Welcome Center",
          "address": "Lincoln Blvd, San Francisco",
          "latitude": 37.8077383,
          "longitude": -122.4748278
        },
        {
          "name": "Golden Gate Bridge (Viewpoint)",
          "address": "Satterlee Breakwater, Sausalito, CA, USA",
          "latitude": 37.8322364,
          "longitude": -122.4731869
        },
        {
          "name": "Golden Gate Bridge Vista Point South",
          "address": "San Francisco, CA, USA",
          "latitude": 37.8081697,
          "longitude": -122.4759235
        },
        {
          "name": "Golden Gate Bridge Plaza",
          "address": "San Francisco, CA, USA",
          "latitude": 37.8075397,
          "longitude": -122.4752078
        },
        {
          "name": "Golden Gate Bridge",
          "address": "San Francisco, CA, USA",
          "latitude": 37.8197055,
          "longitude": -122.4784886
        },
        {
          "name": "Golden Gate Bridge Rooftop View",
          "address": "San Francisco, CA, USA",
          "latitude": 37.805765199999996,
          "longitude": -122.4769447
        },
        {
          "name": "Golden Gate Bridge Bike Rentals",
          "address": "Lombard Street, San Francisco, CA, USA",
          "latitude": 37.799529899999996,
          "longitude": -122.4369355
        },
        {
          "name": "Golden Gate Bridge Toll Plaza",
          "address": "San Francisco, CA, USA",
          "latitude": 37.80722,
          "longitude": -122.47519999999999
        }
      ]
    }
  },
  "{'q': \"Fisherman's Wharf\", 'coordinates': '37.7720,-122.4370'}": {
    "error": "",
    "response": {
      "status": "OK",
      "request_id": "0e7e859e-4eff-4712-acd9-e176d47981c0",
      "data": [
        {
          "name": "Fisherman's Wharf",
          "address": "San Francisco, CA, USA",
          "latitude": 37.8085771,
          "longitude": -122.41252820000001
        },
        {
          "name": "Hotel Riu Plaza Fisherman's Wharf",
          "address": "Mason St, San Francisco",
          "latitude": 37.8071558,
          "longitude": -122.4130557
        },
        {
          "name": "Fisherman's Wharf Ferry Terminal",
          "address": "The Embarcadero, San Francisco",
          "latitude": 37.8091846,
          "longitude": -122.4122058
        },
        {
          "name": "Fisherman's Wharf Sign",
          "address": "Taylor St, San Francisco",
          "latitude": 37.8083555,
          "longitude": -122.415683
        },
        {
          "name": "Pier 2620 Hotel, Fisherman's Wharf, San Francisco",
          "address": "Jones St, San Francisco",
          "latitude": 37.8053223,
          "longitude": -122.41705710000001
        },
        {
          "name": "Hyatt Centric Fisherman's Wharf San Francisco",
          "address": "North Point St, San Francisco",
          "latitude": 37.8059771,
          "longitude": -122.41614739999999
        },
        {
          "name": "Hyatt - Fisherman's Wharf Parking",
          "address": "North Point St, San Francisco",
          "latitude": 37.805857800000005,
          "longitude": -122.4157145
        },
        {
          "name": "Travelodge by Fisherman's Wharf",
          "address": "Columbus Ave, San Francisco",
          "latitude": 37.8053691,
          "longitude": -122.417704
        },
        {
          "name": "San Francisco Marriott \u2022 Fisherman's Wharf",
          "address": "Columbus Ave, San Francisco",
          "latitude": 37.805416,
          "longitude": -122.41727150000001
        },
        {
          "name": "Fisherman's Wharf",
          "address": "Leavenworth Street, San Francisco, CA, USA",
          "latitude": 37.807803799999995,
          "longitude": -122.4158868
        }
      ]
    }
  },
  "{'q': \"Fisherman's Wharf\", 'lang': 'en'}": {
    "error": "",
    "response": {
      "status": "OK",
      "request_id": "105217e3-e3ce-4145-a460-17e62c582d5a",
      "data": [
        {
          "name": "Fisherman's Wharf",
          "address": "San Francisco, CA, USA",
          "latitude": 37.8085771,
          "longitude": -122.41252820000001
        },
        {
          "name": "Hotel Riu Plaza Fisherman's Wharf",
          "address": "Mason St, San Francisco",
          "latitude": 37.8071558,
          "longitude": -122.4130557
        },
        {
          "name": "Fisherman's Wharf Monterey",
          "address": "Fisherman's Wharf, Monterey",
          "latitude": 36.6045716,
          "longitude": -121.8925556
        },
        {
          "name": "Fisherman's Wharf Ferry Terminal",
          "address": "The Embarcadero, San Francisco",
          "latitude": 37.8091846,
          "longitude": -122.4122058
        },
        {
          "name": "Fisherman's Wharf",
          "address": "Leavenworth Street, San Francisco, CA, USA",
          "latitude": 37.807803799999995,
          "longitude": -122.4158868
        },
        {
          "name": "Fisherman's Wharf Sign",
          "address": "Taylor St, San Francisco",
          "latitude": 37.8083555,
          "longitude": -122.415683
        },
        {
          "name": "Pier 2620 Hotel, Fisherman's Wharf, San Francisco",
          "address": "Jones St, San Francisco",
          "latitude": 37.8053223,
          "longitude": -122.41705710000001
        },
        {
          "name": "Hyatt Centric Fisherman's Wharf San Francisco",
          "address": "North Point St, San Francisco",
          "latitude": 37.8059771,
          "longitude": -122.41614739999999
        },
        {
          "name": "Hyatt - Fisherman's Wharf Parking",
          "address": "North Point St, San Francisco",
          "latitude": 37.805857800000005,
          "longitude": -122.4157145
        },
        {
          "name": "Fisherman's Wharf Public Parking",
          "address": "Taylor St, San Francisco",
          "latitude": 37.8087028,
          "longitude": -122.41454700000001
        }
      ]
    }
  },
  "{'q': 'coast'}": {
    "error": "",
    "response": {
      "status": "OK",
      "request_id": "f8d7442e-ef55-4ffc-8a3b-befdbcbeb327",
      "data": [
        {
          "name": "Coast Counties Peterbilt",
          "address": "N 4th St, San Jose",
          "latitude": 37.3677146,
          "longitude": -121.90931870000001
        },
        {
          "name": "Coaster Cafe",
          "address": "Great America Parkway, Santa Clara, CA, USA",
          "latitude": 37.395157399999995,
          "longitude": -121.9730674
        },
        {
          "name": "Coast Lighting",
          "address": "El Camino Real, Redwood City",
          "latitude": 37.4719088,
          "longitude": -122.21612669999999
        },
        {
          "name": "Coastal Cruz",
          "address": "Santa Clara, CA, USA",
          "latitude": 37.396067099999996,
          "longitude": -121.9706642
        },
        {
          "name": "Coast Personnel Services Inc",
          "address": "De La Cruz Boulevard, Santa Clara, CA, USA",
          "latitude": 37.3632121,
          "longitude": -121.9409402
        },
        {
          "name": "Coast Building Products",
          "address": "Thomas Road, Santa Clara, CA, USA",
          "latitude": 37.3832033,
          "longitude": -121.959847
        },
        {
          "name": "Coast Guard Island",
          "address": "Alameda, CA, USA",
          "latitude": 37.7819983,
          "longitude": -122.24908169999999
        },
        {
          "name": "Coast Guard Island",
          "address": "Campbell Dr, Alameda",
          "latitude": 37.782052,
          "longitude": -122.24968589999999
        },
        {
          "name": "Coast Guard Island Gas Station (USCG Base Alameda access only)",
          "address": "Alameda",
          "latitude": 37.780575299999995,
          "longitude": -122.24747309999998
        },
        {
          "name": "Coast Avenue",
          "address": "Mountain View, CA, USA",
          "latitude": 37.4306543,
          "longitude": -122.09811119999999
        }
      ]
    }
  },
  "{'q': 'beach city'}": {
    "error": "",
    "response": {
      "status": "OK",
      "request_id": "0077b191-8c1a-42c9-93c7-8fdfe1aaab39",
      "data": [
        {
          "name": "City Beach Volleyball Club",
          "address": "Technology Place, Fremont, CA, USA",
          "latitude": 37.5102295,
          "longitude": -121.95099880000001
        },
        {
          "name": "Beach City",
          "address": "TX, USA",
          "latitude": 29.738159099999997,
          "longitude": -94.8442859
        },
        {
          "name": "Beach City",
          "address": "OH, USA",
          "latitude": 40.653115899999996,
          "longitude": -81.58095639999999
        },
        {
          "name": "Beach city deli & bbq",
          "address": "Clark Ave, Long Beach",
          "latitude": 33.7884331,
          "longitude": -118.1337357
        },
        {
          "name": "The Beach House",
          "address": "South Norfolk Street, San Mateo, CA, USA",
          "latitude": 37.554252399999996,
          "longitude": -122.2939142
        },
        {
          "name": "Beach City Smoothies",
          "address": "Carlsbad Village Dr, Carlsbad",
          "latitude": 33.160182,
          "longitude": -117.34786489999999
        },
        {
          "name": "Hermosa Beach",
          "address": "CA, USA",
          "latitude": 33.862236599999996,
          "longitude": -118.39951939999999
        },
        {
          "name": "Long Beach",
          "address": "CA, USA",
          "latitude": 33.770050399999995,
          "longitude": -118.19373949999999
        },
        {
          "name": "Diamond Beach Inc",
          "address": "Will Wool Drive, San Jose, CA, USA",
          "latitude": 37.313164,
          "longitude": -121.84823399999999
        },
        {
          "name": "Beach Park Trail",
          "address": "Foster City, CA, USA",
          "latitude": 37.553854199999996,
          "longitude": -122.24899579999999
        }
      ]
    }
  },
  "{'q': 'beach city California'}": {
    "error": "",
    "response": {
      "status": "OK",
      "request_id": "7b8acf44-edc6-4e16-bdf9-741339e085ff",
      "data": [
        {
          "name": "California 1",
          "address": "Long Beach, CA, USA",
          "latitude": 36.75448550000001,
          "longitude": -121.7652988
        },
        {
          "name": "California State University Long Beach",
          "address": "1250 Bellflower Blvd, Long Beach, CA, USA",
          "latitude": 33.7838235,
          "longitude": -118.11409039999998
        },
        {
          "name": "East Beach",
          "address": "San Francisco, California, USA",
          "latitude": 37.8060176,
          "longitude": -122.45069400000001
        },
        {
          "name": "The Beach",
          "address": "Geary Boulevard, San Francisco, California, USA",
          "latitude": 37.7855004,
          "longitude": -122.4222079
        },
        {
          "name": "The Beach Club Guest House",
          "address": "Mans. Vistamar Marina #1310 Calle Mallorca, San Francisco, Carolina, California, USA",
          "latitude": 37.802562,
          "longitude": -122.43798129999999
        },
        {
          "name": "Beach Street",
          "address": "San Francisco, California, USA",
          "latitude": 37.8061155,
          "longitude": -122.42484879999999
        },
        {
          "name": "California 91",
          "address": "Long Beach, CA, USA",
          "latitude": 33.8515119,
          "longitude": -117.84132989999999
        },
        {
          "name": "California Heights",
          "address": "Long Beach, CA, USA",
          "latitude": 33.8221628,
          "longitude": -118.17633880000001
        },
        {
          "name": "Beach Chalet Brewery and Restaurant",
          "address": "Great Highway, San Francisco, California, USA",
          "latitude": 37.7694627,
          "longitude": -122.51021079999998
        },
        {
          "name": "Beach City",
          "address": "Cliff Drive, Santa Barbara, California, USA",
          "latitude": 34.4056104,
          "longitude": -119.7018926
        }
      ]
    }
  },
  "{'q': 'beach volleyball court', 'lang': 'en'}": {
    "error": "",
    "response": {
      "status": "OK",
      "request_id": "2f11cbe7-b6e3-4956-9405-f1c3bbdc0d90",
      "data": [
        {
          "name": "beach volleyball court",
          "address": "Mountain View, CA, USA",
          "latitude": 37.386175099999996,
          "longitude": -122.04916929999997
        },
        {
          "name": "Beach Volleyball Court | Mission Creek Park",
          "address": "San Francisco, CA, USA",
          "latitude": 37.771121199999996,
          "longitude": -122.3980521
        },
        {
          "name": "Beach Volleyball Court | Catamaran Park",
          "address": "Catamaran Street, Foster City, CA, USA",
          "latitude": 37.5525027,
          "longitude": -122.26469469999999
        },
        {
          "name": "Beach Volleyball Court",
          "address": "Unnamed Road, Livermore, CA, USA",
          "latitude": 37.6892936,
          "longitude": -121.70414
        },
        {
          "name": "West Valley Beach Volleyball Courts",
          "address": "East College Circle, Saratoga, CA, USA",
          "latitude": 37.261021299999996,
          "longitude": -122.00867670000001
        },
        {
          "name": "Santa Cruz Beach Volleyball Club - Rio Courts",
          "address": "Beach Drive, Aptos, CA, USA",
          "latitude": 36.963389899999996,
          "longitude": -121.8960875
        },
        {
          "name": "Beach Volleyball Courts",
          "address": "Davis, CA, USA",
          "latitude": 38.544998899999996,
          "longitude": -121.7495669
        },
        {
          "name": "Beach Volleyball Courts - North Avenue Beach",
          "address": "North Lake Shore Drive, Chicago, IL, USA",
          "latitude": 41.9189375,
          "longitude": -87.62851719999999
        },
        {
          "name": "Beach Volleyball Court North",
          "address": "El Paseo Grande, La Jolla, CA, USA",
          "latitude": 32.8596298,
          "longitude": -117.2559251
        }
      ]
    }
  },
  "{'q': 'home', 'lang': 'en'}": {
    "error": "",
    "response": {
      "status": "OK",
      "request_id": "22293549-e4bd-4ae2-a9fd-bbc82d05fc5d",
      "data": [
        {
          "name": "The Home Depot",
          "address": "Kifer Rd, Sunnyvale",
          "latitude": 37.3758828,
          "longitude": -122.0186888
        },
        {
          "name": "Parking - Home Depot",
          "address": "Kifer Rd, Sunnyvale",
          "latitude": 37.375738,
          "longitude": -122.01947709999999
        },
        {
          "name": "HD Supply Home Improvement Solutions",
          "address": "Kifer Rd, Santa Clara",
          "latitude": 37.3736651,
          "longitude": -121.9792755
        },
        {
          "name": "HomeGoods",
          "address": "Mission College Blvd, Santa Clara",
          "latitude": 37.389649999999996,
          "longitude": -121.9849704
        },
        {
          "name": "Marshalls & HomeGoods",
          "address": "Grant Rd, Mountain View",
          "latitude": 37.379224,
          "longitude": -122.07558329999999
        },
        {
          "name": "The Home Depot",
          "address": "Lafayette St, Santa Clara",
          "latitude": 37.3655274,
          "longitude": -121.94874449999998
        },
        {
          "name": "Homewood Suites by Hilton Sunnyvale - Silicon Valley",
          "address": "East El Camino Real, Sunnyvale, CA, USA",
          "latitude": 37.355161599999995,
          "longitude": -122.0177252
        },
        {
          "name": "Lowe's",
          "address": "Ridder Park Dr, San Jose",
          "latitude": 37.3797485,
          "longitude": -121.9019833
        },
        {
          "name": "The Home Depot",
          "address": "S De Anza Blvd, San Jose",
          "latitude": 37.3107396,
          "longitude": -122.0334319
        },
        {
          "name": "Home Eat \u6c49\u5bb6\u5bb4",
          "address": "Stevens Creek Boulevard, Cupertino, CA, USA",
          "latitude": 37.3218464,
          "longitude": -122.03400069999999
        }
      ]
    }
  },
  "{'q': 'beach', 'lang': 'en'}": {
    "error": "",
    "response": {
      "status": "OK",
      "request_id": "97ef3c7f-c3b4-40ed-90e0-470343e63876",
      "data": [
        {
          "name": "beach volleyball court",
          "address": "Mountain View, CA, USA",
          "latitude": 37.386175099999996,
          "longitude": -122.04916929999997
        },
        {
          "name": "Miami Beach Club",
          "address": "S 1st St, San Jose",
          "latitude": 37.3296493,
          "longitude": -121.8860834
        },
        {
          "name": "Beechwood Computing Ltd",
          "address": "Parking, Old Ironsides Drive, Santa Clara, CA, USA",
          "latitude": 37.398376,
          "longitude": -121.978815
        },
        {
          "name": "Beach Park Plaza parking",
          "address": "Foster City",
          "latitude": 37.5635081,
          "longitude": -122.25022329999999
        },
        {
          "name": "Beach House Hotel",
          "address": "Cabrillo Hwy, El Granada",
          "latitude": 37.5019676,
          "longitude": -122.47436259999999
        },
        {
          "name": "Beach Cove",
          "address": "Catamaran Street, Foster City, CA, USA",
          "latitude": 37.552765099999995,
          "longitude": -122.25995679999998
        },
        {
          "name": "Birchwood Apartments",
          "address": "Henderson Avenue, Sunnyvale, CA, USA",
          "latitude": 37.3541413,
          "longitude": -122.0047342
        },
        {
          "name": "Beach Park Elementary School",
          "address": "Shell Boulevard, Foster City, CA, USA",
          "latitude": 37.550135399999995,
          "longitude": -122.26453529999999
        },
        {
          "name": "Beach Hut Deli",
          "address": "South Delaware Street, San Mateo, CA, USA",
          "latitude": 37.5544939,
          "longitude": -122.3066124
        },
        {
          "name": "Beach Elementary school",
          "address": "Lake Ave, Piedmont",
          "latitude": 37.824543,
          "longitude": -122.2466354
        }
      ]
    }
  },
  "{'q': \"user's home location\"}": {
    "error": "",
    "response": {
      "status": "OK",
      "request_id": "41cfdaba-6372-4ddf-9c59-bbe32683a75a",
      "data": []
    }
  }
}