{
    "tool_name":"Breweries",
    "tool_description":"Search breweries across the United States.",
    "title":"Breweries",
    "pricing":"PAID",
    "score":{
        "avgServiceLevel":0,
        "avgLatency":3510,
        "avgSuccessRate":0,
        "popularityScore":0,
        "__typename":"Score"
    },
    "home_url":"https://rapidapi.com/ExoWatts/api/breweries/",
    "host":"breweries.p.rapidapi.com",
    "api_list":[
        {
            "name":"autocomplete",
            "url":"https://breweries.p.rapidapi.com/autocomplete.php",
            "description":"Search our database by the name of the brewery.",
            "method":"GET",
            "required_parameters":[
                {
                    "name":"string",
                    "type":"STRING",
                    "description":"",
                    "default":"big"
                }
            ],
            "optional_parameters":[],
            "code":"import requests\n\nurl = \"https://breweries.p.rapidapi.com/autocomplete.php\"\nquerystring = {\"string\": string}\n\nheaders = {\n    \"X-RapidAPI-Key\": \"SIGN-UP-FOR-KEY\",\n    \"X-RapidAPI-Host\": \"breweries.p.rapidapi.com\"\n}\n\nresponse = requests.get(url, headers=headers, params=querystring)\n\nprint(response.json())\n",
            "statuscode":200,
            "body":[
                {
                    "name":"Big Alice Brewing Company",
                    "brewery_type":"micro",
                    "address":"808 43rd Rd",
                    "city":"Long Island City",
                    "state":"New York",
                    "postal_code":"11101-6820",
                    "website_url":"http://www.bigalicebrewing.com",
                    "phone":"3476882337",
                    "longitude":"",
                    "latitude":""
                },
                {
                    "name":"Big Ash Brewing Company",
                    "brewery_type":"planning",
                    "address":"",
                    "city":"Cincinnati",
                    "state":"Ohio",
                    "postal_code":"45244-3244",
                    "website_url":"http://www.BigAshBrewing.com",
                    "phone":"5133079688",
                    "longitude":"",
                    "latitude":""
                },
                {
                    "name":"Big Axe Brewing Company",
                    "brewery_type":"brewpub",
                    "address":"25435 Main St",
                    "city":"Nisswa",
                    "state":"Minnesota",
                    "postal_code":"56468-5001",
                    "website_url":"http://www.bigaxebrewing.com",
                    "phone":"2189612337",
                    "longitude":"-94.2891095",
                    "latitude":"46.5199477"
                },
                {
                    "name":"Big Barn Brewing Co / Bodacious Berries Fruits and Brews",
                    "brewery_type":"micro",
                    "address":"16004 N Applewood Ln",
                    "city":"Mead",
                    "state":"Washington",
                    "postal_code":"99021-7818",
                    "website_url":"http://www.bigbarnbrewing.com",
                    "phone":"5097102961",
                    "longitude":"-117.26607896136873",
                    "latitude":"47.80652793220603"
                },
                {
                    "name":"Big Beach Brewing Company",
                    "brewery_type":"micro",
                    "address":"300 E 24th Ave",
                    "city":"Gulf Shores",
                    "state":"Alabama",
                    "postal_code":"36542-3104",
                    "website_url":"http://www.bigbeachbrewing.com",
                    "phone":"2519482337",
                    "longitude":"-87.683039",
                    "latitude":"30.278051"
                },
                {
                    "name":"Big Bear Brewing Co",
                    "brewery_type":"brewpub",
                    "address":"1800 N University Dr",
                    "city":"Coral Springs",
                    "state":"Florida",
                    "postal_code":"33071-6031",
                    "website_url":"http://www.bigbearbrewingco.com",
                    "phone":"9543415545",
                    "longitude":"-80.2505088",
                    "latitude":"26.2992083"
                },
                {
                    "name":"Big Bear Lake Brewing Co",
                    "brewery_type":"brewpub",
                    "address":"40827 Stone Rd",
                    "city":"Big Bear Lake",
                    "state":"California",
                    "postal_code":"92315",
                    "website_url":"http://www.bblbc.com",
                    "phone":"9098780283",
                    "longitude":"-116.9110287",
                    "latitude":"34.2425583"
                },
                {
                    "name":"Big Bear Mountain Brewery",
                    "brewery_type":"brewpub",
                    "address":"40260 Big Bear Blvd",
                    "city":"Big Bear Lake",
                    "state":"California",
                    "postal_code":"92315",
                    "website_url":"http://www.mountainbrewery.com",
                    "phone":"9098662337",
                    "longitude":"-116.923042",
                    "latitude":"34.23876062"
                },
                {
                    "name":"Big Beaver Brewing Co",
                    "brewery_type":"micro",
                    "address":"2707 W Eisenhower Blvd Ste 9",
                    "city":"Loveland",
                    "state":"Colorado",
                    "postal_code":"80537-3141",
                    "website_url":"http://www.bigbeaverbrew.com",
                    "phone":"9708186064",
                    "longitude":"",
                    "latitude":""
                },
                {
                    "name":"Big Bend Brewing Co",
                    "brewery_type":"micro",
                    "address":"3401 W Highway 90",
                    "city":"Alpine",
                    "state":"Texas",
                    "postal_code":"79830-4127",
                    "website_url":"http://www.bigbendbrewing.com",
                    "phone":"4328373700",
                    "longitude":"",
                    "latitude":""
                }
            ],
            "headers":{
                "access-control-allow-credentials":"true",
                "access-control-allow-origin":"*",
                "alt-svc":"h3=\":443\"; ma=86400, h3-29=\":443\"; ma=86400",
                "cf-cache-status":"DYNAMIC",
                "cf-ray":"7656df5b5c829c1c-IAD",
                "content-type":"application/json; charset=UTF-8",
                "date":"Sat, 05 Nov 2022 16:12:42 GMT",
                "nel":"{\"success_fraction\":0,\"report_to\":\"cf-nel\",\"max_age\":604800}",
                "report-to":"{\"endpoints\":[{\"url\":\"https:\\/\\/a.nel.cloudflare.com\\/report\\/v3?s=wA89NAJu6xsdYk9aGwWPLKfq6L8ktykysI4knlE0YeV%2F4TNO5XnIfR8Q6CSHp4E01tXH9PkI4YCQISS0xZU3dBrl9JPwbGMikzitQlpxhXPZA9oN0e4M%2BimcmHBFzkZQE8wA\"}],\"group\":\"cf-nel\",\"max_age\":604800}",
                "server":"RapidAPI-1.2.8",
                "x-rapidapi-region":"AWS - us-east-1",
                "x-rapidapi-version":"1.2.8"
            },
            "schema":{}
        },
        {
            "name":"search",
            "url":"https://breweries.p.rapidapi.com/search.php",
            "description":"Search our database of breweries.",
            "method":"GET",
            "required_parameters":[],
            "optional_parameters":[
                {
                    "name":"postal",
                    "type":"NUMBER",
                    "description":"",
                    "default":"58102"
                },
                {
                    "name":"name",
                    "type":"STRING",
                    "description":"",
                    "default":"brew"
                },
                {
                    "name":"type",
                    "type":"ENUM",
                    "description":"",
                    "default":""
                },
                {
                    "name":"state",
                    "type":"STRING",
                    "description":"",
                    "default":"North Dakota"
                }
            ],
            "code":"import requests\n\nurl = \"https://breweries.p.rapidapi.com/search.php\"\nquerystring = {\"postal\": postal, \"name\": name, \"state\": state}\n\nheaders = {\n    \"X-RapidAPI-Key\": \"SIGN-UP-FOR-KEY\",\n    \"X-RapidAPI-Host\": \"breweries.p.rapidapi.com\"\n}\n\nresponse = requests.get(url, headers=headers, params=querystring)\n\nprint(response.json())\n",
            "statuscode":200,
            "body":[
                {
                    "name":"Drekker Brewing Company",
                    "brewery_type":"micro",
                    "address":"1666 1st Ave N",
                    "city":"Fargo",
                    "state":"North Dakota",
                    "postal_code":"58102-4246",
                    "website_url":"http://www.drekkerbrewing.com",
                    "phone":"7015320506",
                    "longitude":"-96.80829701",
                    "latitude":"46.87930301"
                },
                {
                    "name":"Fargo Brewing Co",
                    "brewery_type":"micro",
                    "address":"610 University Dr N",
                    "city":"Fargo",
                    "state":"North Dakota",
                    "postal_code":"58102-4342",
                    "website_url":"http://www.fargobrewing.com",
                    "phone":"7014782337",
                    "longitude":"-96.79937236",
                    "latitude":"46.88326389"
                },
                {
                    "name":"Drumconrath Brewing Company",
                    "brewery_type":"micro",
                    "address":"630 1st Ave N",
                    "city":"Fargo",
                    "state":"North Dakota",
                    "postal_code":"58102-5268",
                    "website_url":"http://www.drumconrathbrewing.com",
                    "phone":"7016453786",
                    "longitude":"-96.78936674",
                    "latitude":"46.8773031"
                },
                {
                    "name":"Pixeled Brewing Company",
                    "brewery_type":"micro",
                    "address":"1100 NP Ave #101",
                    "city":"Fargo",
                    "state":"North Dakota",
                    "postal_code":"58102-4794",
                    "website_url":"http://pixeled.beer",
                    "phone":"7015320915",
                    "longitude":"-96.79606487",
                    "latitude":"46.87589876"
                }
            ],
            "headers":{
                "access-control-allow-credentials":"true",
                "access-control-allow-origin":"*",
                "alt-svc":"h3=\":443\"; ma=86400, h3-29=\":443\"; ma=86400",
                "cf-cache-status":"DYNAMIC",
                "cf-ray":"7656f015d91e7fae-IAD",
                "content-type":"application/json; charset=UTF-8",
                "date":"Sat, 05 Nov 2022 16:24:07 GMT",
                "nel":"{\"success_fraction\":0,\"report_to\":\"cf-nel\",\"max_age\":604800}",
                "report-to":"{\"endpoints\":[{\"url\":\"https:\\/\\/a.nel.cloudflare.com\\/report\\/v3?s=buKJo4ftmqxs8Vd5I6bSaxsKF2%2FWN4Xhs5WUxxVfWk5X3FN3CIc%2FQG%2FTqWKO4rxYLQPwj7QXCJNgK2kILTdG9Bs2U60qmyG0rYjy586BiXJE0T8FXQ2m42PTdpciuNSCMyUb\"}],\"group\":\"cf-nel\",\"max_age\":604800}",
                "server":"RapidAPI-1.2.8",
                "x-rapidapi-region":"AWS - us-east-1",
                "x-rapidapi-version":"1.2.8"
            },
            "schema":{}
        },
        {
            "name":"random",
            "url":"https://breweries.p.rapidapi.com/random.php",
            "description":"Generate a list of 10 random breweries.",
            "method":"GET",
            "required_parameters":[],
            "optional_parameters":[],
            "code":"import requests\n\nurl = \"https://breweries.p.rapidapi.com/random.php\"\n\nheaders = {\n    \"X-RapidAPI-Key\": \"SIGN-UP-FOR-KEY\",\n    \"X-RapidAPI-Host\": \"breweries.p.rapidapi.com\"\n}\n\nresponse = requests.get(url, headers=headers)\n\nprint(response.json())\n",
            "statuscode":200,
            "body":[
                {
                    "name":"Stumptown Ales",
                    "brewery_type":"micro",
                    "address":"390 William Ave",
                    "city":"Davis",
                    "state":"West Virginia",
                    "postal_code":"26260",
                    "website_url":"http://www.stumptownales.com",
                    "phone":"3042595570",
                    "longitude":"-79.4646754",
                    "latitude":"39.12899878"
                },
                {
                    "name":"Liberty Street Brewing Production Facility",
                    "brewery_type":"micro",
                    "address":"11721 Levan Rd",
                    "city":"Livonia",
                    "state":"Michigan",
                    "postal_code":"48150-1401",
                    "website_url":"",
                    "phone":"",
                    "longitude":"-83.40169843",
                    "latitude":"42.36866123"
                },
                {
                    "name":"Swan Brewing",
                    "brewery_type":"micro",
                    "address":"115 W. Pine St.",
                    "city":"Lakeland",
                    "state":"Florida",
                    "postal_code":"33815",
                    "website_url":"http://www.swanbrewing.com",
                    "phone":"8637030472",
                    "longitude":"-81.95746167",
                    "latitude":"28.04600888"
                },
                {
                    "name":"Gruit Brewing",
                    "brewery_type":"micro",
                    "address":"200 Anderson St",
                    "city":"Portland",
                    "state":"Maine",
                    "postal_code":"04101-2562",
                    "website_url":"http://www.fermentory.com",
                    "phone":"2077738331",
                    "longitude":"-70.255898",
                    "latitude":"43.669074"
                },
                {
                    "name":"G.C. Starkey Beer Company",
                    "brewery_type":"contract",
                    "address":"68 Castle St Apt 1C",
                    "city":"Geneva",
                    "state":"New York",
                    "postal_code":"14456-2648",
                    "website_url":"http://www.starkeyslookout.com",
                    "phone":"6076784043",
                    "longitude":"",
                    "latitude":""
                },
                {
                    "name":"Big Boiler Brewing",
                    "brewery_type":"brewpub",
                    "address":"318 E Main St",
                    "city":"Lowell",
                    "state":"Michigan",
                    "postal_code":"49331-1714",
                    "website_url":"http://bigboilerbrewing.com",
                    "phone":"6169873155",
                    "longitude":"-85.33655351",
                    "latitude":"42.93462931"
                },
                {
                    "name":"Harmony Brewing Company - Harmony Hall",
                    "brewery_type":"brewpub",
                    "address":"401 Stocking Ave NW",
                    "city":"Grand Rapids",
                    "state":"Michigan",
                    "postal_code":"49504-5501",
                    "website_url":"",
                    "phone":"",
                    "longitude":"-85.684118",
                    "latitude":"42.970732"
                },
                {
                    "name":"Cravings Bistro & Pub",
                    "brewery_type":"brewpub",
                    "address":"1599 Mall Dr Ste B",
                    "city":"Benton Harbor",
                    "state":"Michigan",
                    "postal_code":"49022-2330",
                    "website_url":"",
                    "phone":"2699349700",
                    "longitude":"",
                    "latitude":""
                },
                {
                    "name":"Black Warrior Brewing Co.",
                    "brewery_type":"micro",
                    "address":"2216 University Blvd",
                    "city":"Tuscaloosa",
                    "state":"Alabama",
                    "postal_code":"35401-1542",
                    "website_url":"http://www.blackwarriorbrewing.com",
                    "phone":"",
                    "longitude":"-87.565915",
                    "latitude":"33.21061755"
                },
                {
                    "name":"Jekyll Brewing",
                    "brewery_type":"micro",
                    "address":"2855 Marconi Dr Ste 350",
                    "city":"Alpharetta",
                    "state":"Georgia",
                    "postal_code":"30005-2051",
                    "website_url":"http://www.jekyllbrewing.com",
                    "phone":"7705968788",
                    "longitude":"-84.2536638",
                    "latitude":"34.0816562"
                }
            ],
            "headers":{
                "access-control-allow-credentials":"true",
                "access-control-allow-origin":"*",
                "alt-svc":"h3=\":443\"; ma=86400, h3-29=\":443\"; ma=86400",
                "cf-cache-status":"DYNAMIC",
                "cf-ray":"7656d5fc08fb81cf-IAD",
                "content-type":"application/json; charset=UTF-8",
                "date":"Sat, 05 Nov 2022 16:06:18 GMT",
                "nel":"{\"success_fraction\":0,\"report_to\":\"cf-nel\",\"max_age\":604800}",
                "report-to":"{\"endpoints\":[{\"url\":\"https:\\/\\/a.nel.cloudflare.com\\/report\\/v3?s=JZPJsn3vXJqSJpvxYFLFXGzRP5LaMjFrcv%2FMCF5MfPYfjxTHsjhspfZQjRcQo3pCc6mCxXoAd2YPVEC3VkF%2F0yuD0haz71EY4WLcyMZ%2ByTF%2FKCtqVEGvo%2Baq1Fufprgt4sA6\"}],\"group\":\"cf-nel\",\"max_age\":604800}",
                "server":"RapidAPI-1.2.8",
                "x-rapidapi-region":"AWS - us-east-1",
                "x-rapidapi-version":"1.2.8"
            },
            "schema":{}
        }
    ]
}