{
    "tool_name":"Vaccines Availability Data - USA",
    "tool_description":"Live COVID-19 vaccine availability information loaded in real-time from https://www.vaccines.gov",
    "title":"Vaccines Availability Data - USA",
    "pricing":"FREEMIUM",
    "score":null,
    "home_url":"https://rapidapi.com/akashpavate58/api/vaccines-availability-data-usa/",
    "host":"vaccines-availability-data-usa.p.rapidapi.com",
    "api_list":[
        {
            "name":"List Medications",
            "url":"https://vaccines-availability-data-usa.p.rapidapi.com/api/medications",
            "description":"Provides a list of vaccines",
            "method":"GET",
            "required_parameters":[],
            "optional_parameters":[],
            "code":"import requests\n\nurl = \"https://vaccines-availability-data-usa.p.rapidapi.com/api/medications\"\n\nheaders = {\n    \"X-RapidAPI-Key\": \"SIGN-UP-FOR-KEY\",\n    \"X-RapidAPI-Host\": \"vaccines-availability-data-usa.p.rapidapi.com\"\n}\n\nresponse = requests.get(url, headers=headers)\n\nprint(response.json())\n",
            "statuscode":200,
            "body":[
                {
                    "MedicationId":"779bfe52-0dd8-4023-a183-457eb100fccc",
                    "MedicationName":"Moderna (age 18+)"
                },
                {
                    "MedicationId":"a84fb9ed-deb4-461c-b785-e17c782ef88b",
                    "MedicationName":"Pfizer-BioNTech (age 12+)"
                },
                {
                    "MedicationId":"784db609-dc1f-45a5-bad6-8db02e79d44f",
                    "MedicationName":"Johnson & Johnson/Janssen (age 18+)"
                }
            ],
            "headers":{
                "content-type":"application/json; charset=utf-8",
                "date":"Mon, 02 Aug 2021 21:24:26 GMT",
                "server":"RapidAPI-1.2.8",
                "x-rapidapi-region":"AWS - us-east-1",
                "x-rapidapi-version":"1.2.8",
                "content-length":"326",
                "connection":"Close"
            },
            "schema":{}
        },
        {
            "name":"Fetch Vaccine Provider Details",
            "url":"https://vaccines-availability-data-usa.p.rapidapi.com/api/providers",
            "description":"Provides detailed information for a particular vaccine provider",
            "method":"GET",
            "required_parameters":[
                {
                    "name":"providerId",
                    "type":"STRING",
                    "description":"Provider Id of a Vaccine Provider",
                    "default":"090659ca-7202-4b80-8f33-3f5d09b41232"
                }
            ],
            "optional_parameters":[],
            "code":"import requests\n\nurl = \"https://vaccines-availability-data-usa.p.rapidapi.com/api/providers\"\nquerystring = {\"providerId\": providerid}\n\nheaders = {\n    \"X-RapidAPI-Key\": \"SIGN-UP-FOR-KEY\",\n    \"X-RapidAPI-Host\": \"vaccines-availability-data-usa.p.rapidapi.com\"\n}\n\nresponse = requests.get(url, headers=headers, params=querystring)\n\nprint(response.json())\n",
            "statuscode":200,
            "body":{
                "ProviderId":"090659ca-7202-4b80-8f33-3f5d09b41232",
                "ProviderName":"CVS Pharmacy, Inc. #07761",
                "Address1":"10420 Grand Ave",
                "Address2":"",
                "City":"Franklin Park",
                "State":"IL",
                "Zip":"60131",
                "Phone":"(847) 455-0160",
                "Website":"https://www.cvs.com/store-locator/details-directions/007761",
                "Notes":"",
                "Inventory":[
                    {
                        "MedicationId":"779bfe52-0dd8-4023-a183-457eb100fccc",
                        "MedicationName":"Moderna (age 18+)",
                        "SupplyLevel":"NO_SUPPLY",
                        "InStock":"FALSE"
                    },
                    {
                        "MedicationId":"a84fb9ed-deb4-461c-b785-e17c782ef88b",
                        "MedicationName":"Pfizer-BioNTech (age 12+)",
                        "SupplyLevel":"NO_SUPPLY",
                        "InStock":"TRUE"
                    },
                    {
                        "MedicationId":"784db609-dc1f-45a5-bad6-8db02e79d44f",
                        "MedicationName":"Johnson & Johnson/Janssen (age 18+)",
                        "SupplyLevel":"NO_SUPPLY",
                        "InStock":"FALSE"
                    }
                ],
                "Latitude":41.930882,
                "Longitude":-87.886208,
                "AcceptsWalkIns":true,
                "AppointmentsAvailable":"TRUE",
                "PrescreeningSite":"https://www.cvs.com/immunizations/covid-19-vaccine",
                "LastUpdated":"2021-08-02T10:05:42+00:00",
                "AcceptsInsurance":true,
                "HoursMonday":"09:00AM-08:00PM",
                "HoursTuesday":"09:00AM-08:00PM",
                "HoursWednesday":"09:00AM-08:00PM",
                "HoursThursday":"09:00AM-08:00PM",
                "HoursFriday":"09:00AM-08:00PM",
                "HoursSaturday":"10:00AM-05:00PM",
                "HoursSunday":"10:00AM-05:00PM",
                "AppointmentAvailabilityLastUpdated":"2021-08-02T19:00:32+00:00"
            },
            "headers":{
                "content-type":"application/json; charset=utf-8",
                "date":"Mon, 02 Aug 2021 21:44:08 GMT",
                "server":"RapidAPI-1.2.8",
                "x-rapidapi-region":"AWS - us-east-1",
                "x-rapidapi-version":"1.2.8",
                "content-length":"1299",
                "connection":"Close"
            },
            "schema":{}
        },
        {
            "name":"Search Vaccine Providers - By Zipcode",
            "url":"https://vaccines-availability-data-usa.p.rapidapi.com/api/providers/search/by-zipcode",
            "description":"Provides a list of vaccine providers in the vicinity of a  zipcode",
            "method":"GET",
            "required_parameters":[
                {
                    "name":"radius",
                    "type":"NUMBER",
                    "description":"Radius (In Miles) - Must be among the following values\n-  radius=1\n-  radius=5\n-  radius=10\n-  radius=25\n-  radius=50\n-  radius=100",
                    "default":"10"
                },
                {
                    "name":"zipcode",
                    "type":"STRING",
                    "description":"",
                    "default":"60176"
                },
                {
                    "name":"medicationIds",
                    "type":"STRING",
                    "description":"Comma-separated values of medication Ids",
                    "default":"779bfe52-0dd8-4023-a183-457eb100fccc,a84fb9ed-deb4-461c-b785-e17c782ef88b,784db609-dc1f-45a5-bad6-8db02e79d44f"
                }
            ],
            "optional_parameters":[],
            "code":"import requests\n\nurl = \"https://vaccines-availability-data-usa.p.rapidapi.com/api/providers/search/by-zipcode\"\nquerystring = {\"radius\": radius, \"zipcode\": zipcode, \"medicationIds\": medicationids}\n\nheaders = {\n    \"X-RapidAPI-Key\": \"SIGN-UP-FOR-KEY\",\n    \"X-RapidAPI-Host\": \"vaccines-availability-data-usa.p.rapidapi.com\"\n}\n\nresponse = requests.get(url, headers=headers, params=querystring)\n\nprint(response.json())\n",
            "statuscode":200,
            "body":[
                {
                    "ProviderId":"7930809b-aa2d-4c9c-95b9-4da9807563fc",
                    "ProviderName":"Walgreens Co. #4826",
                    "Address1":"9800 Irving Park Rd",
                    "Address2":"",
                    "City":"Schiller Park",
                    "State":"IL",
                    "Zip":"60176",
                    "Phone":"847-233-0576",
                    "Distance":0.6,
                    "Latitude":41.956007,
                    "Longitude":-87.871623,
                    "AcceptsWalkIns":true,
                    "AppointmentsAvailable":"TRUE",
                    "InStock":true
                },
                {
                    "ProviderId":"090659ca-7202-4b80-8f33-3f5d09b41232",
                    "ProviderName":"CVS Pharmacy, Inc. #07761",
                    "Address1":"10420 Grand Ave",
                    "Address2":"",
                    "City":"Franklin Park",
                    "State":"IL",
                    "Zip":"60131",
                    "Phone":"(847) 455-0160",
                    "Distance":1.36,
                    "Latitude":41.930882,
                    "Longitude":-87.886208,
                    "AcceptsWalkIns":true,
                    "AppointmentsAvailable":"TRUE",
                    "InStock":true
                },
                {
                    "ProviderId":"fbbb1395-582a-45d1-8626-868ceb94998b",
                    "ProviderName":"OSCO DRUG #4057",
                    "Address1":"10203 Grand Ave",
                    "Address2":"",
                    "City":"Franklin Park",
                    "State":"IL",
                    "Zip":"60131",
                    "Phone":"847-455-0633",
                    "Distance":1.42,
                    "Latitude":41.929443,
                    "Longitude":-87.8804,
                    "AcceptsWalkIns":true,
                    "AppointmentsAvailable":"UNKNOWN",
                    "InStock":true
                },
                {
                    "ProviderId":"66360efb-35ce-4f85-89bf-c3cd147e57b1",
                    "ProviderName":"Walgreens Co. #6462",
                    "Address1":"9595 Grand Ave",
                    "Address2":"",
                    "City":"Franklin Park",
                    "State":"IL",
                    "Zip":"60131",
                    "Phone":"847-455-6876",
                    "Distance":1.66,
                    "Latitude":41.929071,
                    "Longitude":-87.864259,
                    "AcceptsWalkIns":true,
                    "AppointmentsAvailable":"TRUE",
                    "InStock":true
                },
                {
                    "ProviderId":"f3ac5196-2d18-4a61-b0ed-55c8b9be8e78",
                    "ProviderName":"OSCO DRUG #3477",
                    "Address1":"4734 N Cumberland Ave",
                    "Address2":"",
                    "City":"Chicago",
                    "State":"IL",
                    "Zip":"60656",
                    "Phone":"773-625-5525",
                    "Distance":2.41,
                    "Latitude":41.965523,
                    "Longitude":-87.837938,
                    "AcceptsWalkIns":true,
                    "AppointmentsAvailable":"UNKNOWN",
                    "InStock":true
                },
                {
                    "ProviderId":"2fbf978b-484c-444b-8526-13ec419922f2",
                    "ProviderName":"Walgreens Co. #829",
                    "Address1":"8361 W Belmont Ave",
                    "Address2":"",
                    "City":"River Grove",
                    "State":"IL",
                    "Zip":"60171",
                    "Phone":"708-452-8062",
                    "Distance":2.51,
                    "Latitude":41.93535,
                    "Longitude":-87.835405,
                    "AcceptsWalkIns":true,
                    "AppointmentsAvailable":"TRUE",
                    "InStock":true
                },
                {
                    "ProviderId":"a35f90a0-55aa-46cc-896f-928b64bc607c",
                    "ProviderName":"Walgreens Co. #5962",
                    "Address1":"4820 N Cumberland Ave",
                    "Address2":"",
                    "City":"Norridge",
                    "State":"IL",
                    "Zip":"60706",
                    "Phone":"708-583-2133",
                    "Distance":2.52,
                    "Latitude":41.967598,
                    "Longitude":-87.837093,
                    "AcceptsWalkIns":true,
                    "AppointmentsAvailable":"TRUE",
                    "InStock":true
                },
                {
                    "ProviderId":"b28d7455-77b3-471e-b922-191ddddd00b5",
                    "ProviderName":"PRECISION IMM CARE AND MEDICAL CTR",
                    "Address1":"3520 W North Ave",
                    "Address2":"",
                    "City":"Stone Park",
                    "State":"IL",
                    "Zip":"60165",
                    "Phone":"(708) 356-6341",
                    "Distance":2.96,
                    "Latitude":41.907158,
                    "Longitude":-87.87743,
                    "AcceptsWalkIns":true,
                    "AppointmentsAvailable":"UNKNOWN",
                    "InStock":true
                },
                {
                    "ProviderId":"80b7b8f5-d374-43e0-ae80-9d59054364ee",
                    "ProviderName":"Walgreens Co. #3995",
                    "Address1":"6 E North Ave",
                    "Address2":"",
                    "City":"Northlake",
                    "State":"IL",
                    "Zip":"60164",
                    "Phone":"708-836-0348",
                    "Distance":3.14,
                    "Latitude":41.907766,
                    "Longitude":-87.902448,
                    "AcceptsWalkIns":true,
                    "AppointmentsAvailable":"TRUE",
                    "InStock":true
                },
                {
                    "ProviderId":"d9d7a074-0898-4e23-acb3-c7a5cc6b5808",
                    "ProviderName":"Walgreens Co. #9600",
                    "Address1":"1445 W North Ave",
                    "Address2":"",
                    "City":"Melrose Park",
                    "State":"IL",
                    "Zip":"60160",
                    "Phone":"708-345-6080",
                    "Distance":3.19,
                    "Latitude":41.908913,
                    "Longitude":-87.851905,
                    "AcceptsWalkIns":true,
                    "AppointmentsAvailable":"TRUE",
                    "InStock":true
                },
                {
                    "ProviderId":"ffefc494-ff00-4307-aad7-99ac30ad294a",
                    "ProviderName":"Walgreens Co. #9024",
                    "Address1":"5 W Irving Park Rd",
                    "Address2":"",
                    "City":"Bensenville",
                    "State":"IL",
                    "Zip":"60106",
                    "Phone":"630-350-1178",
                    "Distance":3.2,
                    "Latitude":41.961465,
                    "Longitude":-87.94028,
                    "AcceptsWalkIns":true,
                    "AppointmentsAvailable":"TRUE",
                    "InStock":true
                },
                {
                    "ProviderId":"70891d97-0a98-4962-ac0b-76189f4aec55",
                    "ProviderName":"OSCO DRUG #3495",
                    "Address1":"1127 S York Rd",
                    "Address2":"",
                    "City":"Bensenville",
                    "State":"IL",
                    "Zip":"60106",
                    "Phone":"630-238-0280",
                    "Distance":3.2,
                    "Latitude":41.932463,
                    "Longitude":-87.937698,
                    "AcceptsWalkIns":true,
                    "AppointmentsAvailable":"UNKNOWN",
                    "InStock":true
                },
                {
                    "ProviderId":"275b2686-1570-404a-9f51-c1651acfd37a",
                    "ProviderName":"Mariano's Pharmacy #53100525",
                    "Address1":"1900 S Cumberland Ave",
                    "Address2":"",
                    "City":"Park Ridge",
                    "State":"IL",
                    "Zip":"60068",
                    "Phone":"(847) 696-3846",
                    "Distance":3.36,
                    "Latitude":41.987197,
                    "Longitude":-87.837938,
                    "AcceptsWalkIns":true,
                    "AppointmentsAvailable":"UNKNOWN",
                    "InStock":true
                },
                {
                    "ProviderId":"7610d1ea-7c8d-42e4-ac45-ff397ff3487c",
                    "ProviderName":"OSCO DRUG #3290",
                    "Address1":"806 W North Ave",
                    "Address2":"",
                    "City":"Melrose Park",
                    "State":"IL",
                    "Zip":"60160",
                    "Phone":"708-547-8735",
                    "Distance":3.51,
                    "Latitude":41.907626,
                    "Longitude":-87.842182,
                    "AcceptsWalkIns":true,
                    "AppointmentsAvailable":"UNKNOWN",
                    "InStock":true
                },
                {
                    "ProviderId":"89ba8e6d-88a4-433a-a5dc-881a3f6a5303",
                    "ProviderName":"BROADWAY MEDICAL CENTER",
                    "Address1":"153 1/2 N 19th Ave",
                    "Address2":"",
                    "City":"Melrose Park",
                    "State":"IL",
                    "Zip":"60160",
                    "Phone":"(630) 352-0062",
                    "Distance":3.55,
                    "Latitude":41.901663,
                    "Longitude":-87.856644,
                    "AcceptsWalkIns":true,
                    "AppointmentsAvailable":"UNKNOWN",
                    "InStock":false
                },
                {
                    "ProviderId":"4a5fd8d1-44a8-44a2-a700-fdf97ff6c88c",
                    "ProviderName":"Costco Wholesale Corporation #1085",
                    "Address1":"8400 West North Ave",
                    "Address2":"",
                    "City":"Melrose Park",
                    "State":"IL",
                    "Zip":"60160",
                    "Phone":"7083972914",
                    "Distance":3.58,
                    "Latitude":41.909868,
                    "Longitude":-87.835942,
                    "AcceptsWalkIns":true,
                    "AppointmentsAvailable":"UNKNOWN",
                    "InStock":true
                },
                {
                    "ProviderId":"2b9d8001-3ec2-4d5b-92d3-b2c097ba1fc8",
                    "ProviderName":"Mariano's Pharmacy #53100510",
                    "Address1":"7401 W Lawrence Ave",
                    "Address2":"",
                    "City":"Harwood Heights",
                    "State":"IL",
                    "Zip":"60706",
                    "Phone":"(708) 867-8564",
                    "Distance":3.61,
                    "Latitude":41.965357,
                    "Longitude":-87.812753,
                    "AcceptsWalkIns":true,
                    "AppointmentsAvailable":"UNKNOWN",
                    "InStock":true
                },
                {
                    "ProviderId":"761e20bd-d60e-404c-901c-d762e2b6935f",
                    "ProviderName":"CVS Pharmacy, Inc. #16281",
                    "Address1":"850 W North Ave",
                    "Address2":"",
                    "City":"Melrose Park",
                    "State":"IL",
                    "Zip":"60160",
                    "Phone":"(708) 338-2795",
                    "Distance":3.62,
                    "Latitude":41.905204,
                    "Longitude":-87.843464,
                    "AcceptsWalkIns":true,
                    "AppointmentsAvailable":"TRUE",
                    "InStock":true
                },
                {
                    "ProviderId":"2b8a2df3-0b07-461a-8442-00c409cf773d",
                    "ProviderName":"CVS Pharmacy, Inc. #17008",
                    "Address1":"4050 N Harlem Ave",
                    "Address2":"",
                    "City":"Norridge",
                    "State":"IL",
                    "Zip":"60706",
                    "Phone":"(708) 583-6990",
                    "Distance":3.65,
                    "Latitude":41.953518,
                    "Longitude":-87.809066,
                    "AcceptsWalkIns":true,
                    "AppointmentsAvailable":"TRUE",
                    "InStock":true
                },
                {
                    "ProviderId":"2ea13dc7-2fdd-4396-a73c-411090fcfcf6",
                    "ProviderName":"CVS Pharmacy, Inc. #04995",
                    "Address1":"700 W Irving Park Rd",
                    "Address2":"",
                    "City":"Bensenville",
                    "State":"IL",
                    "Zip":"60106",
                    "Phone":"(630) 860-8664",
                    "Distance":3.66,
                    "Latitude":41.960924,
                    "Longitude":-87.949659,
                    "AcceptsWalkIns":true,
                    "AppointmentsAvailable":"TRUE",
                    "InStock":true
                },
                {
                    "ProviderId":"29f5ca85-e0cb-4977-b8dd-3e1f4ba9442f",
                    "ProviderName":"Mariano's Pharmacy #53100511",
                    "Address1":"678 N York St",
                    "Address2":"",
                    "City":"Elmhurst",
                    "State":"IL",
                    "Zip":"60126",
                    "Phone":"(630) 782-0031",
                    "Distance":3.72,
                    "Latitude":41.920623,
                    "Longitude":-87.94068,
                    "AcceptsWalkIns":true,
                    "AppointmentsAvailable":"UNKNOWN",
                    "InStock":true
                },
                {
                    "ProviderId":"9bdfca04-c1f4-4da9-963e-5b13cceefb04",
                    "ProviderName":"Walgreens Co. #11332",
                    "Address1":"4101 N Harlem Ave",
                    "Address2":"",
                    "City":"Norridge",
                    "State":"IL",
                    "Zip":"60706",
                    "Phone":"708-457-0606",
                    "Distance":3.78,
                    "Latitude":41.954634,
                    "Longitude":-87.806685,
                    "AcceptsWalkIns":true,
                    "AppointmentsAvailable":"TRUE",
                    "InStock":true
                },
                {
                    "ProviderId":"fdc44df7-8b7e-4e3f-8513-db831f6cda41",
                    "ProviderName":"GRAND PHARMACY",
                    "Address1":"229 W Grand Ave F",
                    "Address2":"",
                    "City":"Bensenville",
                    "State":"IL",
                    "Zip":"60106",
                    "Phone":"6304223162",
                    "Distance":3.79,
                    "Latitude":41.931705,
                    "Longitude":-87.949486,
                    "AcceptsWalkIns":true,
                    "AppointmentsAvailable":"UNKNOWN",
                    "InStock":true
                },
                {
                    "ProviderId":"3c36d752-d1eb-46d0-b4e9-99e775c3ff36",
                    "ProviderName":"Walgreens Co. #4937",
                    "Address1":"5753 N Canfield Ave",
                    "Address2":"",
                    "City":"Chicago",
                    "State":"IL",
                    "Zip":"60631",
                    "Phone":"773-631-2851",
                    "Distance":3.8,
                    "Latitude":41.984817,
                    "Longitude":-87.822628,
                    "AcceptsWalkIns":true,
                    "AppointmentsAvailable":"TRUE",
                    "InStock":true
                },
                {
                    "ProviderId":"5f889d0d-734f-48d2-ac5b-73f43c1a6559",
                    "ProviderName":"OSCO DRUG #1296",
                    "Address1":"7342 W Foster Ave",
                    "Address2":"",
                    "City":"Chicago",
                    "State":"IL",
                    "Zip":"60656",
                    "Phone":"773-775-3777",
                    "Distance":3.96,
                    "Latitude":41.975465,
                    "Longitude":-87.810987,
                    "AcceptsWalkIns":true,
                    "AppointmentsAvailable":"UNKNOWN",
                    "InStock":true
                },
                {
                    "ProviderId":"c44ab7cd-813c-461c-8123-90f708cb2072",
                    "ProviderName":"Walgreens Co. #3833",
                    "Address1":"2828 N Harlem Ave",
                    "Address2":"",
                    "City":"Elmwood Park",
                    "State":"IL",
                    "Zip":"60707",
                    "Phone":"708-583-0170",
                    "Distance":3.96,
                    "Latitude":41.93179,
                    "Longitude":-87.806916,
                    "AcceptsWalkIns":true,
                    "AppointmentsAvailable":"TRUE",
                    "InStock":true
                },
                {
                    "ProviderId":"f08e1c8f-fca8-46dc-9595-4374a7957284",
                    "ProviderName":"CVS Pharmacy, Inc. #16682",
                    "Address1":"7000 Mannheim Rd",
                    "Address2":"",
                    "City":"Rosemont",
                    "State":"IL",
                    "Zip":"60018",
                    "Phone":"(847) 795-1878",
                    "Distance":3.97,
                    "Latitude":42.007146,
                    "Longitude":-87.887191,
                    "AcceptsWalkIns":true,
                    "AppointmentsAvailable":"TRUE",
                    "InStock":true
                },
                {
                    "ProviderId":"6e38f254-99cc-4d8d-ba00-a1f858a88c58",
                    "ProviderName":"Walgreens Co. #15907",
                    "Address1":"800 Devon Ave",
                    "Address2":"",
                    "City":"Park Ridge",
                    "State":"IL",
                    "Zip":"60068",
                    "Phone":"847-825-7194",
                    "Distance":4.03,
                    "Latitude":41.997021,
                    "Longitude":-87.833629,
                    "AcceptsWalkIns":true,
                    "AppointmentsAvailable":"TRUE",
                    "InStock":true
                },
                {
                    "ProviderId":"530d9bba-78c3-41e4-8cbd-a4c6992cff60",
                    "ProviderName":"CVS Pharmacy, Inc. #03889",
                    "Address1":"7929 N Ave",
                    "Address2":"",
                    "City":"River Forest",
                    "State":"IL",
                    "Zip":"60305",
                    "Phone":"(708) 366-2298",
                    "Distance":4.1,
                    "Latitude":41.908063,
                    "Longitude":-87.823583,
                    "AcceptsWalkIns":true,
                    "AppointmentsAvailable":"TRUE",
                    "InStock":true
                },
                {
                    "ProviderId":"ae1870f0-dd94-4954-a39f-f6a869318312",
                    "ProviderName":"Walgreens Co. #7515",
                    "Address1":"7155 W Foster Pl",
                    "Address2":"",
                    "City":"Chicago",
                    "State":"IL",
                    "Zip":"60656",
                    "Phone":"773-631-3927",
                    "Distance":4.15,
                    "Latitude":41.9746,
                    "Longitude":-87.806224,
                    "AcceptsWalkIns":true,
                    "AppointmentsAvailable":"TRUE",
                    "InStock":true
                },
                {
                    "ProviderId":"862bf8a4-4141-4383-af54-196eed96926a",
                    "ProviderName":"RUSH OAK PARK PHYSICIANS GROUP ELMWOOD PARK",
                    "Address1":"7734 W North Ave",
                    "Address2":"",
                    "City":"Chicago",
                    "State":"IL",
                    "Zip":"60707",
                    "Phone":"708-660-3900",
                    "Distance":4.21,
                    "Latitude":41.908825,
                    "Longitude":-87.819672,
                    "AcceptsWalkIns":false,
                    "AppointmentsAvailable":"UNKNOWN",
                    "InStock":false
                },
                {
                    "ProviderId":"e2174ca3-8516-4d9a-889a-5edab374fd05",
                    "ProviderName":"CHICAGO PEDIATRIC & NEONATOLOGY, S.C.",
                    "Address1":"7447 W Talcott Ave #561",
                    "Address2":"",
                    "City":"Chicago",
                    "State":"IL",
                    "Zip":"60631",
                    "Phone":"(773) 467-8866",
                    "Distance":4.25,
                    "Latitude":41.987668,
                    "Longitude":-87.814551,
                    "AcceptsWalkIns":true,
                    "AppointmentsAvailable":"UNKNOWN",
                    "InStock":false
                },
                {
                    "ProviderId":"16603407-f4e9-445c-8c7c-daa54d0e4466",
                    "ProviderName":"PCC MELROSE PARK FAMILY HEALTH CENTER",
                    "Address1":"1111 Superior St # 101",
                    "Address2":"",
                    "City":"Melrose Park",
                    "State":"IL",
                    "Zip":"60160",
                    "Phone":"(773) 295-3347",
                    "Distance":4.29,
                    "Latitude":41.892779,
                    "Longitude":-87.847733,
                    "AcceptsWalkIns":false,
                    "AppointmentsAvailable":"UNKNOWN",
                    "InStock":false
                },
                {
                    "ProviderId":"01037b94-cabb-482b-b31f-e00ca8c9ca90",
                    "ProviderName":"CVS Pharmacy, Inc. #02860",
                    "Address1":"110 W North Ave",
                    "Address2":"",
                    "City":"Elmhurst",
                    "State":"IL",
                    "Zip":"60126",
                    "Phone":"(630) 617-2830",
                    "Distance":4.36,
                    "Latitude":41.905819,
                    "Longitude":-87.940603,
                    "AcceptsWalkIns":true,
                    "AppointmentsAvailable":"TRUE",
                    "InStock":true
                },
                {
                    "ProviderId":"49137090-b18f-4368-99ec-3cb84715900d",
                    "ProviderName":"Walgreens Co. #4935",
                    "Address1":"6809 W Belmont Ave",
                    "Address2":"",
                    "City":"Chicago",
                    "State":"IL",
                    "Zip":"60634",
                    "Phone":"773-237-6273",
                    "Distance":4.37,
                    "Latitude":41.937867,
                    "Longitude":-87.796545,
                    "AcceptsWalkIns":true,
                    "AppointmentsAvailable":"TRUE",
                    "InStock":true
                },
                {
                    "ProviderId":"66fa1942-b406-4a47-950f-4f4819341dc4",
                    "ProviderName":"Walmart Inc #10-1933",
                    "Address1":"137 W North Ave",
                    "Address2":"",
                    "City":"Northlake",
                    "State":"IL",
                    "Zip":"60164",
                    "Phone":"7084090049",
                    "Distance":4.37,
                    "Latitude":41.906332,
                    "Longitude":-87.941578,
                    "AcceptsWalkIns":true,
                    "AppointmentsAvailable":"UNKNOWN",
                    "InStock":true
                },
                {
                    "ProviderId":"5b9652ed-2880-440b-920a-6e10149b420d",
                    "ProviderName":"Sams Club #10-6358",
                    "Address1":"141 W North Ave",
                    "Address2":"",
                    "City":"Northlake",
                    "State":"IL",
                    "Zip":"60164-2322",
                    "Phone":"7085310807",
                    "Distance":4.38,
                    "Latitude":41.906256,
                    "Longitude":-87.941766,
                    "AcceptsWalkIns":true,
                    "AppointmentsAvailable":"UNKNOWN",
                    "InStock":true
                },
                {
                    "ProviderId":"d48fad87-a63a-4a1e-a673-92663a4994ea",
                    "ProviderName":"OSCO DRUG #3346",
                    "Address1":"153 Schiller St",
                    "Address2":"",
                    "City":"Elmhurst",
                    "State":"IL",
                    "Zip":"60126",
                    "Phone":"630-834-9122",
                    "Distance":4.44,
                    "Latitude":41.901646,
                    "Longitude":-87.937004,
                    "AcceptsWalkIns":true,
                    "AppointmentsAvailable":"UNKNOWN",
                    "InStock":true
                },
                {
                    "ProviderId":"5388f137-5658-47dd-bbb8-efc637ad4297",
                    "ProviderName":"Walgreens Co. #3015",
                    "Address1":"160 Robert T Palmer Dr",
                    "Address2":"",
                    "City":"Elmhurst",
                    "State":"IL",
                    "Zip":"60126",
                    "Phone":"630-782-1703",
                    "Distance":4.51,
                    "Latitude":41.90176,
                    "Longitude":-87.939072,
                    "AcceptsWalkIns":true,
                    "AppointmentsAvailable":"TRUE",
                    "InStock":true
                },
                {
                    "ProviderId":"784e2c41-cc47-4368-aa4f-ec7e5ad51d5b",
                    "ProviderName":"CVS Pharmacy, Inc. #02827",
                    "Address1":"600 Mannheim Rd",
                    "Address2":"",
                    "City":"Hillside",
                    "State":"IL",
                    "Zip":"60162",
                    "Phone":"(708) 649-3741",
                    "Distance":4.7,
                    "Latitude":41.882006,
                    "Longitude":-87.884029,
                    "AcceptsWalkIns":true,
                    "AppointmentsAvailable":"TRUE",
                    "InStock":true
                },
                {
                    "ProviderId":"55068bd7-8ab1-4f22-bd3e-308e6c352c44",
                    "ProviderName":"Walgreens Co. #13826",
                    "Address1":"7200 W North Ave",
                    "Address2":"",
                    "City":"Elmwood Park",
                    "State":"IL",
                    "Zip":"60707",
                    "Phone":"708-456-8810",
                    "Distance":4.71,
                    "Latitude":41.909485,
                    "Longitude":-87.806259,
                    "AcceptsWalkIns":true,
                    "AppointmentsAvailable":"TRUE",
                    "InStock":true
                },
                {
                    "ProviderId":"00c54ad9-2c3b-43ba-8913-93865af5d777",
                    "ProviderName":"OSCO DRUG #3224",
                    "Address1":"6426 W Irving Park Rd",
                    "Address2":"",
                    "City":"Chicago",
                    "State":"IL",
                    "Zip":"60634",
                    "Phone":"773-725-2900",
                    "Distance":4.75,
                    "Latitude":41.95382,
                    "Longitude":-87.787664,
                    "AcceptsWalkIns":true,
                    "AppointmentsAvailable":"UNKNOWN",
                    "InStock":true
                },
                {
                    "ProviderId":"2bb42cf9-82e1-4a36-8955-6bc9d0744a22",
                    "ProviderName":"Walgreens Co. #4540",
                    "Address1":"901 W Touhy Ave",
                    "Address2":"",
                    "City":"Park Ridge",
                    "State":"IL",
                    "Zip":"60068",
                    "Phone":"847-384-0125",
                    "Distance":4.76,
                    "Latitude":42.010774,
                    "Longitude":-87.836328,
                    "AcceptsWalkIns":true,
                    "AppointmentsAvailable":"TRUE",
                    "InStock":true
                },
                {
                    "ProviderId":"dc4e1fad-6c60-41d8-81ab-065d1e6de73a",
                    "ProviderName":"CVS Pharmacy, Inc. #17042",
                    "Address1":"6525 W Diversey Ave",
                    "Address2":"",
                    "City":"Chicago",
                    "State":"IL",
                    "Zip":"60707",
                    "Phone":"(773) 804-3611",
                    "Distance":4.84,
                    "Latitude":41.929938,
                    "Longitude":-87.789788,
                    "AcceptsWalkIns":true,
                    "AppointmentsAvailable":"TRUE",
                    "InStock":true
                },
                {
                    "ProviderId":"eebe4bea-47bd-49a7-809b-bc4409cefec5",
                    "ProviderName":"Walgreens Co. #3779",
                    "Address1":"100 Lake St",
                    "Address2":"",
                    "City":"Maywood",
                    "State":"IL",
                    "Zip":"60153",
                    "Phone":"708-344-9885",
                    "Distance":4.84,
                    "Latitude":41.888472,
                    "Longitude":-87.834961,
                    "AcceptsWalkIns":true,
                    "AppointmentsAvailable":"TRUE",
                    "InStock":true
                },
                {
                    "ProviderId":"df609d01-674d-4f3f-a73f-3b9cd87d81a4",
                    "ProviderName":"BROADWAY MEDICAL CLINIC",
                    "Address1":"4009 Warren Ave",
                    "Address2":"",
                    "City":"Bellwood",
                    "State":"IL",
                    "Zip":"60104",
                    "Phone":"(708) 343-1300",
                    "Distance":4.91,
                    "Latitude":41.879027,
                    "Longitude":-87.882285,
                    "AcceptsWalkIns":true,
                    "AppointmentsAvailable":"UNKNOWN",
                    "InStock":false
                },
                {
                    "ProviderId":"10a124c6-4475-4a23-810a-248140908689",
                    "ProviderName":"OSCO DRUG #3481",
                    "Address1":"491 Busse Hwy",
                    "Address2":"",
                    "City":"Park Ridge",
                    "State":"IL",
                    "Zip":"60068",
                    "Phone":"847-696-3680",
                    "Distance":4.98,
                    "Latitude":42.015721,
                    "Longitude":-87.840193,
                    "AcceptsWalkIns":true,
                    "AppointmentsAvailable":"UNKNOWN",
                    "InStock":true
                },
                {
                    "ProviderId":"700ef723-1210-4d0a-b3cb-ebd2838fa1c2",
                    "ProviderName":"PCC COMMUNITY WELLNESS CENTER AT STEINMETZ",
                    "Address1":"3030 N Mobile Ave",
                    "Address2":"",
                    "City":"Chicago",
                    "State":"IL",
                    "Zip":"60634",
                    "Phone":"(773) 295-3347",
                    "Distance":5.02,
                    "Latitude":41.935631,
                    "Longitude":-87.784152,
                    "AcceptsWalkIns":false,
                    "AppointmentsAvailable":"UNKNOWN",
                    "InStock":false
                },
                {
                    "ProviderId":"24db6bed-14c5-43de-8074-3e72e7288eff",
                    "ProviderName":"CVS Pharmacy, Inc. #03170",
                    "Address1":"6417 W Higgins Ave",
                    "Address2":"",
                    "City":"Chicago",
                    "State":"IL",
                    "Zip":"60656",
                    "Phone":"(773) 631-5906",
                    "Distance":5.04,
                    "Latitude":41.976275,
                    "Longitude":-87.788553,
                    "AcceptsWalkIns":true,
                    "AppointmentsAvailable":"TRUE",
                    "InStock":true
                },
                {
                    "ProviderId":"e7c5402f-2bd2-45ae-bf8d-ea023b4453cc",
                    "ProviderName":"OSCO DRUG #3349",
                    "Address1":"2520 N Narragansett Ave",
                    "Address2":"",
                    "City":"Chicago",
                    "State":"IL",
                    "Zip":"60639",
                    "Phone":"773-637-1819",
                    "Distance":5.09,
                    "Latitude":41.926128,
                    "Longitude":-87.786325,
                    "AcceptsWalkIns":true,
                    "AppointmentsAvailable":"UNKNOWN",
                    "InStock":true
                }
            ],
            "headers":{
                "content-type":"application/json; charset=utf-8",
                "date":"Mon, 02 Aug 2021 21:33:21 GMT",
                "server":"RapidAPI-1.2.8",
                "x-rapidapi-region":"AWS - us-east-1",
                "x-rapidapi-version":"1.2.8",
                "content-length":"16957",
                "connection":"Close"
            },
            "schema":{}
        },
        {
            "name":"Search Vaccine Providers - By Location",
            "url":"https://vaccines-availability-data-usa.p.rapidapi.com/api/providers/search/by-location",
            "description":"Provides a list of vaccine providers in the vicinity of a  Location (Latitude & Longitude)",
            "method":"GET",
            "required_parameters":[
                {
                    "name":"longitude",
                    "type":"NUMBER",
                    "description":"Longitude of the location",
                    "default":"-87.87"
                },
                {
                    "name":"medicationIds",
                    "type":"STRING",
                    "description":"Comma-separated values of medication Ids",
                    "default":"779bfe52-0dd8-4023-a183-457eb100fccc,a84fb9ed-deb4-461c-b785-e17c782ef88b,784db609-dc1f-45a5-bad6-8db02e79d44f"
                },
                {
                    "name":"radius",
                    "type":"NUMBER",
                    "description":"Radius (In Miles) - Must be among the following values\n-  radius=1\n-  radius=5\n-  radius=10\n-  radius=25\n-  radius=50\n-  radius=100",
                    "default":"10"
                },
                {
                    "name":"latitude",
                    "type":"NUMBER",
                    "description":"Latitude of the location",
                    "default":"41.95"
                }
            ],
            "optional_parameters":[],
            "code":"import requests\n\nurl = \"https://vaccines-availability-data-usa.p.rapidapi.com/api/providers/search/by-location\"\nquerystring = {\"longitude\": longitude, \"medicationIds\": medicationids, \"radius\": radius, \"latitude\": latitude}\n\nheaders = {\n    \"X-RapidAPI-Key\": \"SIGN-UP-FOR-KEY\",\n    \"X-RapidAPI-Host\": \"vaccines-availability-data-usa.p.rapidapi.com\"\n}\n\nresponse = requests.get(url, headers=headers, params=querystring)\n\nprint(response.json())\n",
            "statuscode":200,
            "body":[
                {
                    "ProviderId":"7930809b-aa2d-4c9c-95b9-4da9807563fc",
                    "ProviderName":"Walgreens Co. #4826",
                    "Address1":"9800 Irving Park Rd",
                    "Address2":"",
                    "City":"Schiller Park",
                    "State":"IL",
                    "Zip":"60176",
                    "Phone":"847-233-0576",
                    "Distance":0.42,
                    "Latitude":41.956007,
                    "Longitude":-87.871623,
                    "AcceptsWalkIns":true,
                    "AppointmentsAvailable":"TRUE",
                    "InStock":true
                },
                {
                    "ProviderId":"66360efb-35ce-4f85-89bf-c3cd147e57b1",
                    "ProviderName":"Walgreens Co. #6462",
                    "Address1":"9595 Grand Ave",
                    "Address2":"",
                    "City":"Franklin Park",
                    "State":"IL",
                    "Zip":"60131",
                    "Phone":"847-455-6876",
                    "Distance":1.48,
                    "Latitude":41.929071,
                    "Longitude":-87.864259,
                    "AcceptsWalkIns":true,
                    "AppointmentsAvailable":"TRUE",
                    "InStock":true
                },
                {
                    "ProviderId":"fbbb1395-582a-45d1-8626-868ceb94998b",
                    "ProviderName":"OSCO DRUG #4057",
                    "Address1":"10203 Grand Ave",
                    "Address2":"",
                    "City":"Franklin Park",
                    "State":"IL",
                    "Zip":"60131",
                    "Phone":"847-455-0633",
                    "Distance":1.52,
                    "Latitude":41.929443,
                    "Longitude":-87.8804,
                    "AcceptsWalkIns":true,
                    "AppointmentsAvailable":"UNKNOWN",
                    "InStock":true
                },
                {
                    "ProviderId":"090659ca-7202-4b80-8f33-3f5d09b41232",
                    "ProviderName":"CVS Pharmacy, Inc. #07761",
                    "Address1":"10420 Grand Ave",
                    "Address2":"",
                    "City":"Franklin Park",
                    "State":"IL",
                    "Zip":"60131",
                    "Phone":"(847) 455-0160",
                    "Distance":1.56,
                    "Latitude":41.930882,
                    "Longitude":-87.886208,
                    "AcceptsWalkIns":true,
                    "AppointmentsAvailable":"TRUE",
                    "InStock":true
                },
                {
                    "ProviderId":"f3ac5196-2d18-4a61-b0ed-55c8b9be8e78",
                    "ProviderName":"OSCO DRUG #3477",
                    "Address1":"4734 N Cumberland Ave",
                    "Address2":"",
                    "City":"Chicago",
                    "State":"IL",
                    "Zip":"60656",
                    "Phone":"773-625-5525",
                    "Distance":1.97,
                    "Latitude":41.965523,
                    "Longitude":-87.837938,
                    "AcceptsWalkIns":true,
                    "AppointmentsAvailable":"UNKNOWN",
                    "InStock":true
                },
                {
                    "ProviderId":"2fbf978b-484c-444b-8526-13ec419922f2",
                    "ProviderName":"Walgreens Co. #829",
                    "Address1":"8361 W Belmont Ave",
                    "Address2":"",
                    "City":"River Grove",
                    "State":"IL",
                    "Zip":"60171",
                    "Phone":"708-452-8062",
                    "Distance":2.05,
                    "Latitude":41.93535,
                    "Longitude":-87.835405,
                    "AcceptsWalkIns":true,
                    "AppointmentsAvailable":"TRUE",
                    "InStock":true
                },
                {
                    "ProviderId":"a35f90a0-55aa-46cc-896f-928b64bc607c",
                    "ProviderName":"Walgreens Co. #5962",
                    "Address1":"4820 N Cumberland Ave",
                    "Address2":"",
                    "City":"Norridge",
                    "State":"IL",
                    "Zip":"60706",
                    "Phone":"708-583-2133",
                    "Distance":2.08,
                    "Latitude":41.967598,
                    "Longitude":-87.837093,
                    "AcceptsWalkIns":true,
                    "AppointmentsAvailable":"TRUE",
                    "InStock":true
                },
                {
                    "ProviderId":"b28d7455-77b3-471e-b922-191ddddd00b5",
                    "ProviderName":"PRECISION IMM CARE AND MEDICAL CTR",
                    "Address1":"3520 W North Ave",
                    "Address2":"",
                    "City":"Stone Park",
                    "State":"IL",
                    "Zip":"60165",
                    "Phone":"(708) 356-6341",
                    "Distance":2.98,
                    "Latitude":41.907158,
                    "Longitude":-87.87743,
                    "AcceptsWalkIns":true,
                    "AppointmentsAvailable":"UNKNOWN",
                    "InStock":true
                },
                {
                    "ProviderId":"d9d7a074-0898-4e23-acb3-c7a5cc6b5808",
                    "ProviderName":"Walgreens Co. #9600",
                    "Address1":"1445 W North Ave",
                    "Address2":"",
                    "City":"Melrose Park",
                    "State":"IL",
                    "Zip":"60160",
                    "Phone":"708-345-6080",
                    "Distance":2.99,
                    "Latitude":41.908913,
                    "Longitude":-87.851905,
                    "AcceptsWalkIns":true,
                    "AppointmentsAvailable":"TRUE",
                    "InStock":true
                },
                {
                    "ProviderId":"275b2686-1570-404a-9f51-c1651acfd37a",
                    "ProviderName":"Mariano's Pharmacy #53100525",
                    "Address1":"1900 S Cumberland Ave",
                    "Address2":"",
                    "City":"Park Ridge",
                    "State":"IL",
                    "Zip":"60068",
                    "Phone":"(847) 696-3846",
                    "Distance":3.05,
                    "Latitude":41.987197,
                    "Longitude":-87.837938,
                    "AcceptsWalkIns":true,
                    "AppointmentsAvailable":"UNKNOWN",
                    "InStock":true
                },
                {
                    "ProviderId":"2b9d8001-3ec2-4d5b-92d3-b2c097ba1fc8",
                    "ProviderName":"Mariano's Pharmacy #53100510",
                    "Address1":"7401 W Lawrence Ave",
                    "Address2":"",
                    "City":"Harwood Heights",
                    "State":"IL",
                    "Zip":"60706",
                    "Phone":"(708) 867-8564",
                    "Distance":3.13,
                    "Latitude":41.965357,
                    "Longitude":-87.812753,
                    "AcceptsWalkIns":true,
                    "AppointmentsAvailable":"UNKNOWN",
                    "InStock":true
                },
                {
                    "ProviderId":"2b8a2df3-0b07-461a-8442-00c409cf773d",
                    "ProviderName":"CVS Pharmacy, Inc. #17008",
                    "Address1":"4050 N Harlem Ave",
                    "Address2":"",
                    "City":"Norridge",
                    "State":"IL",
                    "Zip":"60706",
                    "Phone":"(708) 583-6990",
                    "Distance":3.14,
                    "Latitude":41.953518,
                    "Longitude":-87.809066,
                    "AcceptsWalkIns":true,
                    "AppointmentsAvailable":"TRUE",
                    "InStock":true
                },
                {
                    "ProviderId":"7610d1ea-7c8d-42e4-ac45-ff397ff3487c",
                    "ProviderName":"OSCO DRUG #3290",
                    "Address1":"806 W North Ave",
                    "Address2":"",
                    "City":"Melrose Park",
                    "State":"IL",
                    "Zip":"60160",
                    "Phone":"708-547-8735",
                    "Distance":3.26,
                    "Latitude":41.907626,
                    "Longitude":-87.842182,
                    "AcceptsWalkIns":true,
                    "AppointmentsAvailable":"UNKNOWN",
                    "InStock":true
                },
                {
                    "ProviderId":"9bdfca04-c1f4-4da9-963e-5b13cceefb04",
                    "ProviderName":"Walgreens Co. #11332",
                    "Address1":"4101 N Harlem Ave",
                    "Address2":"",
                    "City":"Norridge",
                    "State":"IL",
                    "Zip":"60706",
                    "Phone":"708-457-0606",
                    "Distance":3.27,
                    "Latitude":41.954634,
                    "Longitude":-87.806685,
                    "AcceptsWalkIns":true,
                    "AppointmentsAvailable":"TRUE",
                    "InStock":true
                },
                {
                    "ProviderId":"4a5fd8d1-44a8-44a2-a700-fdf97ff6c88c",
                    "ProviderName":"Costco Wholesale Corporation #1085",
                    "Address1":"8400 West North Ave",
                    "Address2":"",
                    "City":"Melrose Park",
                    "State":"IL",
                    "Zip":"60160",
                    "Phone":"7083972914",
                    "Distance":3.28,
                    "Latitude":41.909868,
                    "Longitude":-87.835942,
                    "AcceptsWalkIns":true,
                    "AppointmentsAvailable":"UNKNOWN",
                    "InStock":true
                },
                {
                    "ProviderId":"80b7b8f5-d374-43e0-ae80-9d59054364ee",
                    "ProviderName":"Walgreens Co. #3995",
                    "Address1":"6 E North Ave",
                    "Address2":"",
                    "City":"Northlake",
                    "State":"IL",
                    "Zip":"60164",
                    "Phone":"708-836-0348",
                    "Distance":3.36,
                    "Latitude":41.907766,
                    "Longitude":-87.902448,
                    "AcceptsWalkIns":true,
                    "AppointmentsAvailable":"TRUE",
                    "InStock":true
                },
                {
                    "ProviderId":"761e20bd-d60e-404c-901c-d762e2b6935f",
                    "ProviderName":"CVS Pharmacy, Inc. #16281",
                    "Address1":"850 W North Ave",
                    "Address2":"",
                    "City":"Melrose Park",
                    "State":"IL",
                    "Zip":"60160",
                    "Phone":"(708) 338-2795",
                    "Distance":3.38,
                    "Latitude":41.905204,
                    "Longitude":-87.843464,
                    "AcceptsWalkIns":true,
                    "AppointmentsAvailable":"TRUE",
                    "InStock":true
                },
                {
                    "ProviderId":"89ba8e6d-88a4-433a-a5dc-881a3f6a5303",
                    "ProviderName":"BROADWAY MEDICAL CENTER",
                    "Address1":"153 1/2 N 19th Ave",
                    "Address2":"",
                    "City":"Melrose Park",
                    "State":"IL",
                    "Zip":"60160",
                    "Phone":"(630) 352-0062",
                    "Distance":3.41,
                    "Latitude":41.901663,
                    "Longitude":-87.856644,
                    "AcceptsWalkIns":true,
                    "AppointmentsAvailable":"UNKNOWN",
                    "InStock":false
                },
                {
                    "ProviderId":"3c36d752-d1eb-46d0-b4e9-99e775c3ff36",
                    "ProviderName":"Walgreens Co. #4937",
                    "Address1":"5753 N Canfield Ave",
                    "Address2":"",
                    "City":"Chicago",
                    "State":"IL",
                    "Zip":"60631",
                    "Phone":"773-631-2851",
                    "Distance":3.42,
                    "Latitude":41.984817,
                    "Longitude":-87.822628,
                    "AcceptsWalkIns":true,
                    "AppointmentsAvailable":"TRUE",
                    "InStock":true
                },
                {
                    "ProviderId":"c44ab7cd-813c-461c-8123-90f708cb2072",
                    "ProviderName":"Walgreens Co. #3833",
                    "Address1":"2828 N Harlem Ave",
                    "Address2":"",
                    "City":"Elmwood Park",
                    "State":"IL",
                    "Zip":"60707",
                    "Phone":"708-583-0170",
                    "Distance":3.48,
                    "Latitude":41.93179,
                    "Longitude":-87.806916,
                    "AcceptsWalkIns":true,
                    "AppointmentsAvailable":"TRUE",
                    "InStock":true
                },
                {
                    "ProviderId":"5f889d0d-734f-48d2-ac5b-73f43c1a6559",
                    "ProviderName":"OSCO DRUG #1296",
                    "Address1":"7342 W Foster Ave",
                    "Address2":"",
                    "City":"Chicago",
                    "State":"IL",
                    "Zip":"60656",
                    "Phone":"773-775-3777",
                    "Distance":3.51,
                    "Latitude":41.975465,
                    "Longitude":-87.810987,
                    "AcceptsWalkIns":true,
                    "AppointmentsAvailable":"UNKNOWN",
                    "InStock":true
                },
                {
                    "ProviderId":"70891d97-0a98-4962-ac0b-76189f4aec55",
                    "ProviderName":"OSCO DRUG #3495",
                    "Address1":"1127 S York Rd",
                    "Address2":"",
                    "City":"Bensenville",
                    "State":"IL",
                    "Zip":"60106",
                    "Phone":"630-238-0280",
                    "Distance":3.68,
                    "Latitude":41.932463,
                    "Longitude":-87.937698,
                    "AcceptsWalkIns":true,
                    "AppointmentsAvailable":"UNKNOWN",
                    "InStock":true
                },
                {
                    "ProviderId":"ae1870f0-dd94-4954-a39f-f6a869318312",
                    "ProviderName":"Walgreens Co. #7515",
                    "Address1":"7155 W Foster Pl",
                    "Address2":"",
                    "City":"Chicago",
                    "State":"IL",
                    "Zip":"60656",
                    "Phone":"773-631-3927",
                    "Distance":3.69,
                    "Latitude":41.9746,
                    "Longitude":-87.806224,
                    "AcceptsWalkIns":true,
                    "AppointmentsAvailable":"TRUE",
                    "InStock":true
                },
                {
                    "ProviderId":"ffefc494-ff00-4307-aad7-99ac30ad294a",
                    "ProviderName":"Walgreens Co. #9024",
                    "Address1":"5 W Irving Park Rd",
                    "Address2":"",
                    "City":"Bensenville",
                    "State":"IL",
                    "Zip":"60106",
                    "Phone":"630-350-1178",
                    "Distance":3.7,
                    "Latitude":41.961465,
                    "Longitude":-87.94028,
                    "AcceptsWalkIns":true,
                    "AppointmentsAvailable":"TRUE",
                    "InStock":true
                },
                {
                    "ProviderId":"6e38f254-99cc-4d8d-ba00-a1f858a88c58",
                    "ProviderName":"Walgreens Co. #15907",
                    "Address1":"800 Devon Ave",
                    "Address2":"",
                    "City":"Park Ridge",
                    "State":"IL",
                    "Zip":"60068",
                    "Phone":"847-825-7194",
                    "Distance":3.75,
                    "Latitude":41.997021,
                    "Longitude":-87.833629,
                    "AcceptsWalkIns":true,
                    "AppointmentsAvailable":"TRUE",
                    "InStock":true
                },
                {
                    "ProviderId":"530d9bba-78c3-41e4-8cbd-a4c6992cff60",
                    "ProviderName":"CVS Pharmacy, Inc. #03889",
                    "Address1":"7929 N Ave",
                    "Address2":"",
                    "City":"River Forest",
                    "State":"IL",
                    "Zip":"60305",
                    "Phone":"(708) 366-2298",
                    "Distance":3.75,
                    "Latitude":41.908063,
                    "Longitude":-87.823583,
                    "AcceptsWalkIns":true,
                    "AppointmentsAvailable":"TRUE",
                    "InStock":true
                },
                {
                    "ProviderId":"862bf8a4-4141-4383-af54-196eed96926a",
                    "ProviderName":"RUSH OAK PARK PHYSICIANS GROUP ELMWOOD PARK",
                    "Address1":"7734 W North Ave",
                    "Address2":"",
                    "City":"Chicago",
                    "State":"IL",
                    "Zip":"60707",
                    "Phone":"708-660-3900",
                    "Distance":3.85,
                    "Latitude":41.908825,
                    "Longitude":-87.819672,
                    "AcceptsWalkIns":false,
                    "AppointmentsAvailable":"UNKNOWN",
                    "InStock":false
                },
                {
                    "ProviderId":"e2174ca3-8516-4d9a-889a-5edab374fd05",
                    "ProviderName":"CHICAGO PEDIATRIC & NEONATOLOGY, S.C.",
                    "Address1":"7447 W Talcott Ave #561",
                    "Address2":"",
                    "City":"Chicago",
                    "State":"IL",
                    "Zip":"60631",
                    "Phone":"(773) 467-8866",
                    "Distance":3.86,
                    "Latitude":41.987668,
                    "Longitude":-87.814551,
                    "AcceptsWalkIns":true,
                    "AppointmentsAvailable":"UNKNOWN",
                    "InStock":false
                },
                {
                    "ProviderId":"49137090-b18f-4368-99ec-3cb84715900d",
                    "ProviderName":"Walgreens Co. #4935",
                    "Address1":"6809 W Belmont Ave",
                    "Address2":"",
                    "City":"Chicago",
                    "State":"IL",
                    "Zip":"60634",
                    "Phone":"773-237-6273",
                    "Distance":3.87,
                    "Latitude":41.937867,
                    "Longitude":-87.796545,
                    "AcceptsWalkIns":true,
                    "AppointmentsAvailable":"TRUE",
                    "InStock":true
                },
                {
                    "ProviderId":"f08e1c8f-fca8-46dc-9595-4374a7957284",
                    "ProviderName":"CVS Pharmacy, Inc. #16682",
                    "Address1":"7000 Mannheim Rd",
                    "Address2":"",
                    "City":"Rosemont",
                    "State":"IL",
                    "Zip":"60018",
                    "Phone":"(847) 795-1878",
                    "Distance":4.05,
                    "Latitude":42.007146,
                    "Longitude":-87.887191,
                    "AcceptsWalkIns":true,
                    "AppointmentsAvailable":"TRUE",
                    "InStock":true
                },
                {
                    "ProviderId":"16603407-f4e9-445c-8c7c-daa54d0e4466",
                    "ProviderName":"PCC MELROSE PARK FAMILY HEALTH CENTER",
                    "Address1":"1111 Superior St # 101",
                    "Address2":"",
                    "City":"Melrose Park",
                    "State":"IL",
                    "Zip":"60160",
                    "Phone":"(773) 295-3347",
                    "Distance":4.12,
                    "Latitude":41.892779,
                    "Longitude":-87.847733,
                    "AcceptsWalkIns":false,
                    "AppointmentsAvailable":"UNKNOWN",
                    "InStock":false
                },
                {
                    "ProviderId":"29f5ca85-e0cb-4977-b8dd-3e1f4ba9442f",
                    "ProviderName":"Mariano's Pharmacy #53100511",
                    "Address1":"678 N York St",
                    "Address2":"",
                    "City":"Elmhurst",
                    "State":"IL",
                    "Zip":"60126",
                    "Phone":"(630) 782-0031",
                    "Distance":4.16,
                    "Latitude":41.920623,
                    "Longitude":-87.94068,
                    "AcceptsWalkIns":true,
                    "AppointmentsAvailable":"UNKNOWN",
                    "InStock":true
                },
                {
                    "ProviderId":"2ea13dc7-2fdd-4396-a73c-411090fcfcf6",
                    "ProviderName":"CVS Pharmacy, Inc. #04995",
                    "Address1":"700 W Irving Park Rd",
                    "Address2":"",
                    "City":"Bensenville",
                    "State":"IL",
                    "Zip":"60106",
                    "Phone":"(630) 860-8664",
                    "Distance":4.16,
                    "Latitude":41.960924,
                    "Longitude":-87.949659,
                    "AcceptsWalkIns":true,
                    "AppointmentsAvailable":"TRUE",
                    "InStock":true
                },
                {
                    "ProviderId":"00c54ad9-2c3b-43ba-8913-93865af5d777",
                    "ProviderName":"OSCO DRUG #3224",
                    "Address1":"6426 W Irving Park Rd",
                    "Address2":"",
                    "City":"Chicago",
                    "State":"IL",
                    "Zip":"60634",
                    "Phone":"773-725-2900",
                    "Distance":4.24,
                    "Latitude":41.95382,
                    "Longitude":-87.787664,
                    "AcceptsWalkIns":true,
                    "AppointmentsAvailable":"UNKNOWN",
                    "InStock":true
                },
                {
                    "ProviderId":"fdc44df7-8b7e-4e3f-8513-db831f6cda41",
                    "ProviderName":"GRAND PHARMACY",
                    "Address1":"229 W Grand Ave F",
                    "Address2":"",
                    "City":"Bensenville",
                    "State":"IL",
                    "Zip":"60106",
                    "Phone":"6304223162",
                    "Distance":4.28,
                    "Latitude":41.931705,
                    "Longitude":-87.949486,
                    "AcceptsWalkIns":true,
                    "AppointmentsAvailable":"UNKNOWN",
                    "InStock":true
                },
                {
                    "ProviderId":"55068bd7-8ab1-4f22-bd3e-308e6c352c44",
                    "ProviderName":"Walgreens Co. #13826",
                    "Address1":"7200 W North Ave",
                    "Address2":"",
                    "City":"Elmwood Park",
                    "State":"IL",
                    "Zip":"60707",
                    "Phone":"708-456-8810",
                    "Distance":4.31,
                    "Latitude":41.909485,
                    "Longitude":-87.806259,
                    "AcceptsWalkIns":true,
                    "AppointmentsAvailable":"TRUE",
                    "InStock":true
                },
                {
                    "ProviderId":"dc4e1fad-6c60-41d8-81ab-065d1e6de73a",
                    "ProviderName":"CVS Pharmacy, Inc. #17042",
                    "Address1":"6525 W Diversey Ave",
                    "Address2":"",
                    "City":"Chicago",
                    "State":"IL",
                    "Zip":"60707",
                    "Phone":"(773) 804-3611",
                    "Distance":4.35,
                    "Latitude":41.929938,
                    "Longitude":-87.789788,
                    "AcceptsWalkIns":true,
                    "AppointmentsAvailable":"TRUE",
                    "InStock":true
                },
                {
                    "ProviderId":"700ef723-1210-4d0a-b3cb-ebd2838fa1c2",
                    "ProviderName":"PCC COMMUNITY WELLNESS CENTER AT STEINMETZ",
                    "Address1":"3030 N Mobile Ave",
                    "Address2":"",
                    "City":"Chicago",
                    "State":"IL",
                    "Zip":"60634",
                    "Phone":"(773) 295-3347",
                    "Distance":4.52,
                    "Latitude":41.935631,
                    "Longitude":-87.784152,
                    "AcceptsWalkIns":false,
                    "AppointmentsAvailable":"UNKNOWN",
                    "InStock":false
                },
                {
                    "ProviderId":"2bb42cf9-82e1-4a36-8955-6bc9d0744a22",
                    "ProviderName":"Walgreens Co. #4540",
                    "Address1":"901 W Touhy Ave",
                    "Address2":"",
                    "City":"Park Ridge",
                    "State":"IL",
                    "Zip":"60068",
                    "Phone":"847-384-0125",
                    "Distance":4.54,
                    "Latitude":42.010774,
                    "Longitude":-87.836328,
                    "AcceptsWalkIns":true,
                    "AppointmentsAvailable":"TRUE",
                    "InStock":true
                },
                {
                    "ProviderId":"24db6bed-14c5-43de-8074-3e72e7288eff",
                    "ProviderName":"CVS Pharmacy, Inc. #03170",
                    "Address1":"6417 W Higgins Ave",
                    "Address2":"",
                    "City":"Chicago",
                    "State":"IL",
                    "Zip":"60656",
                    "Phone":"(773) 631-5906",
                    "Distance":4.56,
                    "Latitude":41.976275,
                    "Longitude":-87.788553,
                    "AcceptsWalkIns":true,
                    "AppointmentsAvailable":"TRUE",
                    "InStock":true
                },
                {
                    "ProviderId":"e7c5402f-2bd2-45ae-bf8d-ea023b4453cc",
                    "ProviderName":"OSCO DRUG #3349",
                    "Address1":"2520 N Narragansett Ave",
                    "Address2":"",
                    "City":"Chicago",
                    "State":"IL",
                    "Zip":"60639",
                    "Phone":"773-637-1819",
                    "Distance":4.61,
                    "Latitude":41.926128,
                    "Longitude":-87.786325,
                    "AcceptsWalkIns":true,
                    "AppointmentsAvailable":"UNKNOWN",
                    "InStock":true
                },
                {
                    "ProviderId":"eebe4bea-47bd-49a7-809b-bc4409cefec5",
                    "ProviderName":"Walgreens Co. #3779",
                    "Address1":"100 Lake St",
                    "Address2":"",
                    "City":"Maywood",
                    "State":"IL",
                    "Zip":"60153",
                    "Phone":"708-344-9885",
                    "Distance":4.62,
                    "Latitude":41.888472,
                    "Longitude":-87.834961,
                    "AcceptsWalkIns":true,
                    "AppointmentsAvailable":"TRUE",
                    "InStock":true
                },
                {
                    "ProviderId":"01037b94-cabb-482b-b31f-e00ca8c9ca90",
                    "ProviderName":"CVS Pharmacy, Inc. #02860",
                    "Address1":"110 W North Ave",
                    "Address2":"",
                    "City":"Elmhurst",
                    "State":"IL",
                    "Zip":"60126",
                    "Phone":"(630) 617-2830",
                    "Distance":4.74,
                    "Latitude":41.905819,
                    "Longitude":-87.940603,
                    "AcceptsWalkIns":true,
                    "AppointmentsAvailable":"TRUE",
                    "InStock":true
                },
                {
                    "ProviderId":"784e2c41-cc47-4368-aa4f-ec7e5ad51d5b",
                    "ProviderName":"CVS Pharmacy, Inc. #02827",
                    "Address1":"600 Mannheim Rd",
                    "Address2":"",
                    "City":"Hillside",
                    "State":"IL",
                    "Zip":"60162",
                    "Phone":"(708) 649-3741",
                    "Distance":4.75,
                    "Latitude":41.882006,
                    "Longitude":-87.884029,
                    "AcceptsWalkIns":true,
                    "AppointmentsAvailable":"TRUE",
                    "InStock":true
                },
                {
                    "ProviderId":"66fa1942-b406-4a47-950f-4f4819341dc4",
                    "ProviderName":"Walmart Inc #10-1933",
                    "Address1":"137 W North Ave",
                    "Address2":"",
                    "City":"Northlake",
                    "State":"IL",
                    "Zip":"60164",
                    "Phone":"7084090049",
                    "Distance":4.76,
                    "Latitude":41.906332,
                    "Longitude":-87.941578,
                    "AcceptsWalkIns":true,
                    "AppointmentsAvailable":"UNKNOWN",
                    "InStock":true
                },
                {
                    "ProviderId":"5b9652ed-2880-440b-920a-6e10149b420d",
                    "ProviderName":"Sams Club #10-6358",
                    "Address1":"141 W North Ave",
                    "Address2":"",
                    "City":"Northlake",
                    "State":"IL",
                    "Zip":"60164-2322",
                    "Phone":"7085310807",
                    "Distance":4.77,
                    "Latitude":41.906256,
                    "Longitude":-87.941766,
                    "AcceptsWalkIns":true,
                    "AppointmentsAvailable":"UNKNOWN",
                    "InStock":true
                },
                {
                    "ProviderId":"7e227419-2bb6-437a-a559-5ddc53639620",
                    "ProviderName":"CVS Pharmacy, Inc. #08756",
                    "Address1":"6200 W Higgins Ave",
                    "Address2":"",
                    "City":"Chicago",
                    "State":"IL",
                    "Zip":"60630",
                    "Phone":"(773) 775-9316",
                    "Distance":4.79,
                    "Latitude":41.975322,
                    "Longitude":-87.783251,
                    "AcceptsWalkIns":true,
                    "AppointmentsAvailable":"TRUE",
                    "InStock":true
                },
                {
                    "ProviderId":"10a124c6-4475-4a23-810a-248140908689",
                    "ProviderName":"OSCO DRUG #3481",
                    "Address1":"491 Busse Hwy",
                    "Address2":"",
                    "City":"Park Ridge",
                    "State":"IL",
                    "Zip":"60068",
                    "Phone":"847-696-3680",
                    "Distance":4.79,
                    "Latitude":42.015721,
                    "Longitude":-87.840193,
                    "AcceptsWalkIns":true,
                    "AppointmentsAvailable":"UNKNOWN",
                    "InStock":true
                },
                {
                    "ProviderId":"d48fad87-a63a-4a1e-a673-92663a4994ea",
                    "ProviderName":"OSCO DRUG #3346",
                    "Address1":"153 Schiller St",
                    "Address2":"",
                    "City":"Elmhurst",
                    "State":"IL",
                    "Zip":"60126",
                    "Phone":"630-834-9122",
                    "Distance":4.8,
                    "Latitude":41.901646,
                    "Longitude":-87.937004,
                    "AcceptsWalkIns":true,
                    "AppointmentsAvailable":"UNKNOWN",
                    "InStock":true
                },
                {
                    "ProviderId":"aeba86f2-ea2c-40e2-9388-dffebada2ddd",
                    "ProviderName":"Walgreens Co. #5121",
                    "Address1":"5935 W Addison St",
                    "Address2":"",
                    "City":"Chicago",
                    "State":"IL",
                    "Zip":"60634",
                    "Phone":"773-282-1594",
                    "Distance":4.86,
                    "Latitude":41.945521,
                    "Longitude":-87.775594,
                    "AcceptsWalkIns":true,
                    "AppointmentsAvailable":"TRUE",
                    "InStock":true
                }
            ],
            "headers":{
                "content-type":"application/json; charset=utf-8",
                "date":"Mon, 02 Aug 2021 21:42:02 GMT",
                "server":"RapidAPI-1.2.8",
                "x-rapidapi-region":"AWS - us-east-1",
                "x-rapidapi-version":"1.2.8",
                "content-length":"16956",
                "connection":"Close"
            },
            "schema":{}
        }
    ]
}