{
  "{'countryid': 'JP', 'limit': 3}": {
    "error": "",
    "response": {
      "data": [
        {
          "id": 3619785,
          "wikiDataId": "Q27560716",
          "type": "ISLAND",
          "name": "Abashima",
          "region": "Hiroshima Prefecture",
          "regionCode": "34",
          "regionWdId": "Q617375",
          "latitude": 34.31158333,
          "longitude": 132.94716667,
          "population": 0
        },
        {
          "id": 3452892,
          "wikiDataId": "Q305640",
          "type": "CITY",
          "name": "Abashiri",
          "region": "Hokkaido",
          "regionCode": "01",
          "regionWdId": "Q1037393",
          "latitude": 44.020638888,
          "longitude": 144.273555555,
          "population": 34640
        },
        {
          "id": 3395480,
          "wikiDataId": "Q1186622",
          "type": "ADM2",
          "name": "Abashiri district",
          "region": "Hokkaido",
          "regionCode": "01",
          "regionWdId": "Q1037393",
          "latitude": 43.73,
          "longitude": 144.13,
          "population": 0
        }
      ],
      "metadata": {
        "currentOffset": 0,
        "totalCount": 3381
      }
    }
  },
  "{'countryid': 'CH', 'limit': 1}": {
    "error": "",
    "response": {
      "data": [
        {
          "id": 12869,
          "wikiDataId": "Q69131",
          "type": "CITY",
          "name": "Aadorf",
          "region": "canton of Thurgau",
          "regionCode": "TG",
          "regionWdId": "Q12713",
          "latitude": 47.493888888,
          "longitude": 8.8975,
          "population": 9036
        }
      ],
      "metadata": {
        "currentOffset": 0,
        "totalCount": 4231
      }
    }
  },
  "{'countryid': 'CH'}": {
    "error": "",
    "response": {
      "data": [
        {
          "id": 12869,
          "wikiDataId": "Q69131",
          "type": "CITY",
          "name": "Aadorf",
          "region": "canton of Thurgau",
          "regionCode": "TG",
          "regionWdId": "Q12713",
          "latitude": 47.493888888,
          "longitude": 8.8975,
          "population": 9036
        },
        {
          "id": 3713726,
          "wikiDataId": "Q14274",
          "type": "CITY",
          "name": "Aarau",
          "region": "Canton Aargau",
          "regionCode": "AG",
          "regionWdId": "Q11972",
          "latitude": 47.39254,
          "longitude": 8.04422,
          "population": 21503
        },
        {
          "id": 140746,
          "wikiDataId": "Q121410",
          "type": "ADM2",
          "name": "Aarau District",
          "region": "Canton Aargau",
          "regionCode": "AG",
          "regionWdId": "Q11972",
          "latitude": 47.383333333,
          "longitude": 8.033333333,
          "population": 80309
        },
        {
          "id": 12611,
          "wikiDataId": "Q64113",
          "type": "CITY",
          "name": "Aarberg",
          "region": "canton of Bern",
          "regionCode": "BE",
          "regionWdId": "Q11911",
          "latitude": 47.045833333,
          "longitude": 7.276388888,
          "population": 4629
        },
        {
          "id": 12611,
          "wikiDataId": "Q64113",
          "type": "CITY",
          "name": "Aarberg",
          "region": "canton of Bern",
          "regionCode": "BE",
          "regionWdId": "Q11911",
          "latitude": 47.045833333,
          "longitude": 7.276388888,
          "population": 4628
        }
      ],
      "metadata": {
        "currentOffset": 0,
        "totalCount": 4231
      }
    }
  },
  "{'countryid': 'CH', 'limit': 1, 'nameprefix': 'Grindelwald'}": {
    "error": "",
    "response": {
      "data": [
        {
          "id": 11903,
          "wikiDataId": "Q64004",
          "type": "CITY",
          "name": "Grindelwald",
          "region": "canton of Bern",
          "regionCode": "BE",
          "regionWdId": "Q11911",
          "latitude": 46.625555555,
          "longitude": 8.033333333,
          "population": 3801
        }
      ],
      "metadata": {
        "currentOffset": 0,
        "totalCount": 1
      }
    }
  },
  "{'countryid': 'CH', 'limit': 5}": {
    "error": "",
    "response": {
      "data": [
        {
          "id": 12869,
          "wikiDataId": "Q69131",
          "type": "CITY",
          "name": "Aadorf",
          "region": "canton of Thurgau",
          "regionCode": "TG",
          "regionWdId": "Q12713",
          "latitude": 47.493888888,
          "longitude": 8.8975,
          "population": 9036
        },
        {
          "id": 3713726,
          "wikiDataId": "Q14274",
          "type": "CITY",
          "name": "Aarau",
          "region": "Canton Aargau",
          "regionCode": "AG",
          "regionWdId": "Q11972",
          "latitude": 47.39254,
          "longitude": 8.04422,
          "population": 21503
        },
        {
          "id": 140746,
          "wikiDataId": "Q121410",
          "type": "ADM2",
          "name": "Aarau District",
          "region": "Canton Aargau",
          "regionCode": "AG",
          "regionWdId": "Q11972",
          "latitude": 47.383333333,
          "longitude": 8.033333333,
          "population": 80309
        },
        {
          "id": 12611,
          "wikiDataId": "Q64113",
          "type": "CITY",
          "name": "Aarberg",
          "region": "canton of Bern",
          "regionCode": "BE",
          "regionWdId": "Q11911",
          "latitude": 47.045833333,
          "longitude": 7.276388888,
          "population": 4629
        },
        {
          "id": 12611,
          "wikiDataId": "Q64113",
          "type": "CITY",
          "name": "Aarberg",
          "region": "canton of Bern",
          "regionCode": "BE",
          "regionWdId": "Q11911",
          "latitude": 47.045833333,
          "longitude": 7.276388888,
          "population": 4628
        }
      ],
      "metadata": {
        "currentOffset": 0,
        "totalCount": 4231
      }
    }
  },
  "{'countryid': 'JP', 'limit': 3, 'languagecode': 'en'}": {
    "error": "",
    "response": {
      "data": [
        {
          "id": 3619785,
          "wikiDataId": "Q27560716",
          "type": "ISLAND",
          "name": "Abashima",
          "region": "Hiroshima Prefecture",
          "regionCode": "34",
          "regionWdId": "Q617375",
          "latitude": 34.31158333,
          "longitude": 132.94716667,
          "population": 0
        },
        {
          "id": 3452892,
          "wikiDataId": "Q305640",
          "type": "CITY",
          "name": "Abashiri",
          "region": "Hokkaido",
          "regionCode": "01",
          "regionWdId": "Q1037393",
          "latitude": 44.020638888,
          "longitude": 144.273555555,
          "population": 34640
        },
        {
          "id": 3395480,
          "wikiDataId": "Q1186622",
          "type": "ADM2",
          "name": "Abashiri district",
          "region": "Hokkaido",
          "regionCode": "01",
          "regionWdId": "Q1037393",
          "latitude": 43.73,
          "longitude": 144.13,
          "population": 0
        }
      ],
      "metadata": {
        "currentOffset": 0,
        "totalCount": 3382
      }
    }
  },
  "{'countryid': 'JP', 'limit': 5}": {
    "error": "",
    "response": {
      "data": [
        {
          "id": 3619785,
          "wikiDataId": "Q27560716",
          "type": "ISLAND",
          "name": "Abashima",
          "region": "Hiroshima Prefecture",
          "regionCode": "34",
          "regionWdId": "Q617375",
          "latitude": 34.31158333,
          "longitude": 132.94716667,
          "population": 0
        },
        {
          "id": 3452892,
          "wikiDataId": "Q305640",
          "type": "CITY",
          "name": "Abashiri",
          "region": "Hokkaido",
          "regionCode": "01",
          "regionWdId": "Q1037393",
          "latitude": 44.020638888,
          "longitude": 144.273555555,
          "population": 34640
        },
        {
          "id": 3395480,
          "wikiDataId": "Q1186622",
          "type": "ADM2",
          "name": "Abashiri district",
          "region": "Hokkaido",
          "regionCode": "01",
          "regionWdId": "Q1037393",
          "latitude": 43.73,
          "longitude": 144.13,
          "population": 0
        },
        {
          "id": 3012777,
          "wikiDataId": "Q489009",
          "type": "CITY",
          "name": "Abeno-ku",
          "region": "Osaka Prefecture",
          "regionCode": "27",
          "regionWdId": "Q122723",
          "latitude": 34.638972222,
          "longitude": 135.518491666,
          "population": 111011
        },
        {
          "id": 69171,
          "wikiDataId": "Q243859",
          "type": "CITY",
          "name": "Abiko",
          "region": "Chiba Prefecture",
          "regionCode": "12",
          "regionWdId": "Q80011",
          "latitude": 35.864222222,
          "longitude": 140.028388888,
          "population": 130290
        }
      ],
      "metadata": {
        "currentOffset": 0,
        "totalCount": 3382
      }
    }
  },
  "{'countryid': 'US', 'limit': 1}": {
    "error": "",
    "response": {
      "data": [
        {
          "id": 3474305,
          "wikiDataId": "Q423532",
          "type": "CITY",
          "name": "'Amanave",
          "region": "American Samoa",
          "regionCode": "AS",
          "regionWdId": "Q16641",
          "latitude": -14.33,
          "longitude": -170.829444444,
          "population": 287
        }
      ],
      "metadata": {
        "currentOffset": 0,
        "totalCount": 80439
      }
    }
  },
  "{'countryid': 'US', 'limit': 5}": {
    "error": "",
    "response": {
      "data": [
        {
          "id": 3474305,
          "wikiDataId": "Q423532",
          "type": "CITY",
          "name": "'Amanave",
          "region": "American Samoa",
          "regionCode": "AS",
          "regionWdId": "Q16641",
          "latitude": -14.33,
          "longitude": -170.829444444,
          "population": 287
        },
        {
          "id": 3474538,
          "wikiDataId": "Q545773",
          "type": "CITY",
          "name": "'Aoa",
          "region": "American Samoa",
          "regionCode": "AS",
          "regionWdId": "Q16641",
          "latitude": -14.265555555,
          "longitude": -170.583888888,
          "population": 474
        },
        {
          "id": 3474327,
          "wikiDataId": "Q3596203",
          "type": "CITY",
          "name": "'Au'asi",
          "region": "American Samoa",
          "regionCode": "AS",
          "regionWdId": "Q16641",
          "latitude": -14.276666666,
          "longitude": -170.574444444,
          "population": 125
        },
        {
          "id": 3269322,
          "wikiDataId": "Q22058543",
          "type": "CITY",
          "name": "A and F Trailer Park",
          "region": "Arizona",
          "regionCode": "AZ",
          "regionWdId": "Q816",
          "latitude": 33.295833333,
          "longitude": -111.841944444,
          "population": 0
        },
        {
          "id": 3474236,
          "wikiDataId": "Q3600284",
          "type": "CITY",
          "name": "A'oloau",
          "region": "American Samoa",
          "regionCode": "AS",
          "regionWdId": "Q16641",
          "latitude": -14.3128,
          "longitude": -170.774,
          "population": 790
        }
      ],
      "metadata": {
        "currentOffset": 0,
        "totalCount": 80439
      }
    }
  },
  "{'countryid': 'JP', 'limit': 3, 'sort': '+elevation'}": {
    "error": "",
    "response": {
      "data": [
        {
          "id": 3452892,
          "wikiDataId": "Q305640",
          "type": "CITY",
          "name": "Abashiri",
          "region": "Hokkaido",
          "regionCode": "01",
          "regionWdId": "Q1037393",
          "latitude": 44.020638888,
          "longitude": 144.273555555,
          "population": 34640
        },
        {
          "id": 3395480,
          "wikiDataId": "Q1186622",
          "type": "ADM2",
          "name": "Abashiri district",
          "region": "Hokkaido",
          "regionCode": "01",
          "regionWdId": "Q1037393",
          "latitude": 43.73,
          "longitude": 144.13,
          "population": 0
        },
        {
          "id": 3012777,
          "wikiDataId": "Q489009",
          "type": "CITY",
          "name": "Abeno-ku",
          "region": "Osaka Prefecture",
          "regionCode": "27",
          "regionWdId": "Q122723",
          "latitude": 34.638972222,
          "longitude": 135.518491666,
          "population": 111011
        }
      ],
      "metadata": {
        "currentOffset": 0,
        "totalCount": 3382
      }
    }
  },
  "{'countryid': 'FR', 'limit': 1, 'languagecode': 'en', 'nameprefix': 'Paris'}": {
    "error": "",
    "response": {
      "data": [
        {
          "id": 3075501,
          "wikiDataId": "Q163948",
          "type": "CITY",
          "name": "10th arrondissement of Paris",
          "region": "\u00cele-de-France",
          "regionCode": "IDF",
          "regionWdId": "Q13917",
          "latitude": 48.8709,
          "longitude": 2.3561,
          "population": 83459
        }
      ],
      "metadata": {
        "currentOffset": 0,
        "totalCount": 28
      }
    }
  },
  "{'countryid': 'IT', 'limit': 1}": {
    "error": "",
    "response": {
      "data": [
        {
          "id": 3292475,
          "wikiDataId": "Q18488374",
          "type": "CITY",
          "name": "A Bertolacci",
          "region": "Tuscany",
          "regionCode": "52",
          "regionWdId": "Q1273",
          "latitude": 43.92125,
          "longitude": 10.48318,
          "population": 32
        }
      ],
      "metadata": {
        "currentOffset": 0,
        "totalCount": 59956
      }
    }
  },
  "{'countryid': 'ES', 'limit': 1}": {
    "error": "",
    "response": {
      "data": [
        {
          "id": 3501262,
          "wikiDataId": "Q8183929",
          "type": "CITY",
          "name": "A Abeleda",
          "region": "Galicia",
          "regionCode": "GA",
          "regionWdId": "Q3908",
          "latitude": 42.17629,
          "longitude": -7.71043,
          "population": 325
        }
      ],
      "metadata": {
        "currentOffset": 0,
        "totalCount": 16164
      }
    }
  },
  "{'countryid': 'IT', 'nameprefix': 'Venice'}": {
    "error": "",
    "response": {
      "data": [
        {
          "id": 3182629,
          "wikiDataId": "Q3678587",
          "type": "CITY",
          "name": "Metropolitan City of Venice",
          "region": "Veneto",
          "regionCode": "34",
          "regionWdId": "Q1243",
          "latitude": 45.4397,
          "longitude": 12.3319,
          "population": 857841
        },
        {
          "id": 58788,
          "wikiDataId": "Q641",
          "type": "CITY",
          "name": "Venice",
          "region": "Veneto",
          "regionCode": "34",
          "regionWdId": "Q1243",
          "latitude": 45.439722222,
          "longitude": 12.331944444,
          "population": 254850
        }
      ],
      "metadata": {
        "currentOffset": 0,
        "totalCount": 2
      }
    }
  },
  "{'countryid': 'SG', 'limit': 5}": {
    "error": "",
    "response": {
      "data": [
        {
          "id": 3653040,
          "wikiDataId": "Q49631717",
          "type": "ISLAND",
          "name": "Anak Pulau",
          "latitude": 1.28833,
          "longitude": 103.69417,
          "population": 0
        },
        {
          "id": 3580710,
          "wikiDataId": "Q3536317",
          "type": "ISLAND",
          "name": "Biola",
          "region": "Singapore",
          "regionCode": "SG",
          "regionWdId": "Q334",
          "latitude": 1.164,
          "longitude": 103.74222222,
          "population": 0
        },
        {
          "id": 3624121,
          "wikiDataId": "Q3249777",
          "type": "CITY",
          "name": "Bishan",
          "region": "Singapore",
          "regionCode": "SG",
          "regionWdId": "Q334",
          "latitude": 1.35083,
          "longitude": 103.851,
          "population": 0
        },
        {
          "id": 3620966,
          "wikiDataId": "Q4986926",
          "type": "CITY",
          "name": "Bukit Merah",
          "region": "Singapore",
          "regionCode": "SG",
          "regionWdId": "Q334",
          "latitude": 1.28583,
          "longitude": 103.81944,
          "population": 151870
        },
        {
          "id": 3642981,
          "wikiDataId": "Q2224065",
          "type": "CITY",
          "name": "Bukit Panjang",
          "region": "Singapore",
          "regionCode": "SG",
          "regionWdId": "Q334",
          "latitude": 1.37278,
          "longitude": 103.75444,
          "population": 0
        }
      ],
      "metadata": {
        "currentOffset": 0,
        "totalCount": 68
      }
    }
  },
  "{'countryid': 'ES'}": {
    "error": "",
    "response": {
      "data": [
        {
          "id": 3501262,
          "wikiDataId": "Q8183929",
          "type": "CITY",
          "name": "A Abeleda",
          "region": "Galicia",
          "regionCode": "GA",
          "regionWdId": "Q3908",
          "latitude": 42.17629,
          "longitude": -7.71043,
          "population": 325
        },
        {
          "id": 3464711,
          "wikiDataId": "Q1631832",
          "type": "CITY",
          "name": "A Arnoia",
          "region": "Galicia",
          "regionCode": "GA",
          "regionWdId": "Q3908",
          "latitude": 42.250277777,
          "longitude": -8.133055555,
          "population": 1015
        },
        {
          "id": 3519175,
          "wikiDataId": "Q1183411",
          "type": "CITY",
          "name": "A Ba\u00f1a",
          "region": "Galicia",
          "regionCode": "GA",
          "regionWdId": "Q3908",
          "latitude": 42.966666666,
          "longitude": -8.766666666,
          "population": 3333
        },
        {
          "id": 3519101,
          "wikiDataId": "Q523929",
          "type": "CITY",
          "name": "A Bola",
          "region": "Galicia",
          "regionCode": "GA",
          "regionWdId": "Q3908",
          "latitude": 42.151666666,
          "longitude": -7.914722222,
          "population": 1088
        },
        {
          "id": 3437955,
          "wikiDataId": "Q1798642",
          "type": "CITY",
          "name": "A Bra\u00f1a",
          "region": "Asturias",
          "regionCode": "AS",
          "regionWdId": "Q3934",
          "latitude": 43.47612806,
          "longitude": -6.85890664,
          "population": 165
        }
      ],
      "metadata": {
        "currentOffset": 0,
        "totalCount": 16164
      }
    }
  },
  "{'countryid': 'SG'}": {
    "error": "",
    "response": {
      "data": [
        {
          "id": 3653040,
          "wikiDataId": "Q49631717",
          "type": "ISLAND",
          "name": "Anak Pulau",
          "latitude": 1.28833,
          "longitude": 103.69417,
          "population": 0
        },
        {
          "id": 3580710,
          "wikiDataId": "Q3536317",
          "type": "ISLAND",
          "name": "Biola",
          "region": "Singapore",
          "regionCode": "SG",
          "regionWdId": "Q334",
          "latitude": 1.164,
          "longitude": 103.74222222,
          "population": 0
        },
        {
          "id": 3624121,
          "wikiDataId": "Q3249777",
          "type": "CITY",
          "name": "Bishan",
          "region": "Singapore",
          "regionCode": "SG",
          "regionWdId": "Q334",
          "latitude": 1.35083,
          "longitude": 103.851,
          "population": 0
        },
        {
          "id": 3620966,
          "wikiDataId": "Q4986926",
          "type": "CITY",
          "name": "Bukit Merah",
          "region": "Singapore",
          "regionCode": "SG",
          "regionWdId": "Q334",
          "latitude": 1.28583,
          "longitude": 103.81944,
          "population": 151870
        },
        {
          "id": 3642981,
          "wikiDataId": "Q2224065",
          "type": "CITY",
          "name": "Bukit Panjang",
          "region": "Singapore",
          "regionCode": "SG",
          "regionWdId": "Q334",
          "latitude": 1.37278,
          "longitude": 103.75444,
          "population": 0
        }
      ],
      "metadata": {
        "currentOffset": 0,
        "totalCount": 68
      }
    }
  },
  "{'countryid': 'DE'}": {
    "error": "",
    "response": {
      "data": [
        {
          "id": 3526448,
          "wikiDataId": "Q63806446",
          "type": "CITY",
          "name": "Aabauerschaft",
          "region": "North Rhine-Westphalia",
          "regionCode": "NW",
          "regionWdId": "Q1198",
          "latitude": 52.066666666,
          "longitude": 7.384722222,
          "population": 0
        },
        {
          "id": 3189887,
          "wikiDataId": "Q300691",
          "type": "CITY",
          "name": "Aach",
          "region": "Rhineland-Palatinate",
          "regionCode": "RP",
          "regionWdId": "Q1200",
          "latitude": 49.791111111,
          "longitude": 6.59,
          "population": 1142
        },
        {
          "id": 3661434,
          "wikiDataId": "Q31868004",
          "type": "CITY",
          "name": "Aach",
          "region": "Baden-W\u00fcrttemberg",
          "regionCode": "BW",
          "regionWdId": "Q985",
          "latitude": 47.8425,
          "longitude": 8.853888888,
          "population": 2248
        },
        {
          "id": 3643015,
          "wikiDataId": "Q31867994",
          "type": "CITY",
          "name": "Aach",
          "region": "Rhineland-Palatinate",
          "regionCode": "RP",
          "regionWdId": "Q1200",
          "latitude": 49.78333,
          "longitude": 6.6,
          "population": 1151
        },
        {
          "id": 3453293,
          "wikiDataId": "Q1017",
          "type": "CITY",
          "name": "Aachen",
          "region": "North Rhine-Westphalia",
          "regionCode": "NW",
          "regionWdId": "Q1198",
          "latitude": 50.77603,
          "longitude": 6.08723,
          "population": 249070
        }
      ],
      "metadata": {
        "currentOffset": 0,
        "totalCount": 26440
      }
    }
  },
  "{'countryid': 'GB'}": {
    "error": "",
    "response": {
      "data": [
        {
          "id": 3487728,
          "wikiDataId": "Q4646804",
          "type": "CITY",
          "name": "A' Chill",
          "region": "Scotland",
          "regionCode": "SCT",
          "regionWdId": "Q22",
          "latitude": 57.0564,
          "longitude": -6.50979,
          "population": 0
        },
        {
          "id": 3589772,
          "wikiDataId": "Q24659066",
          "type": "ISLAND",
          "name": "A' Chleit",
          "region": "Scotland",
          "regionCode": "SCT",
          "regionWdId": "Q22",
          "latitude": 58.133333333,
          "longitude": -5.35,
          "population": 0
        },
        {
          "id": 3637384,
          "wikiDataId": "Q2818847",
          "type": "ISLAND",
          "name": "A' Ch\u00f9li",
          "region": "Scotland",
          "regionCode": "SCT",
          "regionWdId": "Q22",
          "latitude": 56.23548,
          "longitude": -5.785933,
          "population": 0
        },
        {
          "id": 3280531,
          "wikiDataId": "Q3490381",
          "type": "CITY",
          "name": "Ab Kettleby",
          "region": "England",
          "regionCode": "ENG",
          "regionWdId": "Q21",
          "latitude": 52.80043,
          "longitude": -0.92608,
          "population": 0
        },
        {
          "id": 3395586,
          "wikiDataId": "Q4663033",
          "type": "CITY",
          "name": "Ab Lench",
          "region": "Worcestershire",
          "regionCode": "WOR",
          "regionWdId": "Q23135",
          "latitude": 52.16447,
          "longitude": -1.983,
          "population": 0
        }
      ],
      "metadata": {
        "currentOffset": 0,
        "totalCount": 24140
      }
    }
  },
  "{'countryid': 'IT', 'limit': 1, 'nameprefix': 'Venice'}": {
    "error": "",
    "response": {
      "data": [
        {
          "id": 3182629,
          "wikiDataId": "Q3678587",
          "type": "CITY",
          "name": "Metropolitan City of Venice",
          "region": "Veneto",
          "regionCode": "34",
          "regionWdId": "Q1243",
          "latitude": 45.4397,
          "longitude": 12.3319,
          "population": 857841
        }
      ],
      "metadata": {
        "currentOffset": 0,
        "totalCount": 2
      }
    }
  },
  "{'countryid': 'SG', 'limit': 1}": {
    "error": "",
    "response": {
      "data": [
        {
          "id": 3653040,
          "wikiDataId": "Q49631717",
          "type": "ISLAND",
          "name": "Anak Pulau",
          "latitude": 1.28833,
          "longitude": 103.69417,
          "population": 0
        }
      ],
      "metadata": {
        "currentOffset": 0,
        "totalCount": 68
      }
    }
  },
  "{'countryid': 'IT', 'nameprefix': 'Venice', 'types': 'CITY'}": {
    "error": "",
    "response": {
      "data": [
        {
          "id": 3182629,
          "wikiDataId": "Q3678587",
          "type": "CITY",
          "name": "Metropolitan City of Venice",
          "region": "Veneto",
          "regionCode": "34",
          "regionWdId": "Q1243",
          "latitude": 45.4397,
          "longitude": 12.3319,
          "population": 857841
        },
        {
          "id": 58788,
          "wikiDataId": "Q641",
          "type": "CITY",
          "name": "Venice",
          "region": "Veneto",
          "regionCode": "34",
          "regionWdId": "Q1243",
          "latitude": 45.439722222,
          "longitude": 12.331944444,
          "population": 254850
        }
      ],
      "metadata": {
        "currentOffset": 0,
        "totalCount": 2
      }
    }
  },
  "{'countryid': 'SG', 'limit': 5, 'sort': '-population'}": {
    "error": "",
    "response": {
      "data": [
        {
          "id": 3516906,
          "wikiDataId": "Q334",
          "type": "CITY",
          "name": "Singapore",
          "region": "Singapore",
          "regionCode": "SG",
          "regionWdId": "Q334",
          "latitude": 1.3,
          "longitude": 103.8,
          "population": 5866139
        },
        {
          "id": 3102157,
          "wikiDataId": "Q8053844",
          "type": "CITY",
          "name": "Yishun New Town",
          "region": "North West Community Development Council",
          "regionCode": "03",
          "regionWdId": "Q5784118",
          "latitude": 1.433333333,
          "longitude": 103.833333333,
          "population": 220320
        },
        {
          "id": 3112321,
          "wikiDataId": "Q1069101",
          "type": "CITY",
          "name": "Choa Chu Kang",
          "region": "Singapore",
          "regionCode": "SG",
          "regionWdId": "Q334",
          "latitude": 1.383333333,
          "longitude": 103.75,
          "population": 190890
        },
        {
          "id": 3150957,
          "wikiDataId": "Q7260156",
          "type": "CITY",
          "name": "Punggol",
          "region": "Singapore",
          "regionCode": "SG",
          "regionWdId": "Q334",
          "latitude": 1.41444,
          "longitude": 103.90694,
          "population": 170560
        },
        {
          "id": 3620966,
          "wikiDataId": "Q4986926",
          "type": "CITY",
          "name": "Bukit Merah",
          "region": "Singapore",
          "regionCode": "SG",
          "regionWdId": "Q334",
          "latitude": 1.28583,
          "longitude": 103.81944,
          "population": 151870
        }
      ],
      "metadata": {
        "currentOffset": 0,
        "totalCount": 68
      }
    }
  },
  "{'countryid': 'IT', 'nameprefix': 'Ven', 'types': 'CITY'}": {
    "error": "",
    "response": {
      "data": [
        {
          "id": 3431029,
          "wikiDataId": "Q18505788",
          "type": "CITY",
          "name": "Aggregato Rossano Veneto",
          "region": "Veneto",
          "regionCode": "34",
          "regionWdId": "Q1243",
          "latitude": 45.69986,
          "longitude": 11.7869,
          "population": 6
        },
        {
          "id": 3621764,
          "wikiDataId": "Q30022236",
          "type": "CITY",
          "name": "Anguillara Veneta",
          "region": "Veneto",
          "regionCode": "34",
          "regionWdId": "Q1243",
          "latitude": 45.14249,
          "longitude": 11.88461,
          "population": 2938
        },
        {
          "id": 65540,
          "wikiDataId": "Q34665",
          "type": "CITY",
          "name": "Anguillara Veneta",
          "region": "Veneto",
          "regionCode": "34",
          "regionWdId": "Q1243",
          "latitude": 45.15,
          "longitude": 11.883333333,
          "population": 4325
        },
        {
          "id": 64852,
          "wikiDataId": "Q47186",
          "type": "CITY",
          "name": "Annone Veneto",
          "region": "Veneto",
          "regionCode": "34",
          "regionWdId": "Q1243",
          "latitude": 45.8,
          "longitude": 12.683333333,
          "population": 3932
        },
        {
          "id": 3630309,
          "wikiDataId": "Q30022397",
          "type": "CITY",
          "name": "Asigliano Veneto",
          "region": "Veneto",
          "regionCode": "34",
          "regionWdId": "Q1243",
          "latitude": 45.30469,
          "longitude": 11.4464,
          "population": 406
        }
      ],
      "metadata": {
        "currentOffset": 0,
        "totalCount": 189
      }
    }
  },
  "{'countryid': 'SG', 'limit': 5, 'maxpopulation': 0, 'sort': '-population'}": {
    "error": "",
    "response": {
      "data": [
        {
          "id": 3516906,
          "wikiDataId": "Q334",
          "type": "CITY",
          "name": "Singapore",
          "region": "Singapore",
          "regionCode": "SG",
          "regionWdId": "Q334",
          "latitude": 1.3,
          "longitude": 103.8,
          "population": 5866139
        },
        {
          "id": 3102157,
          "wikiDataId": "Q8053844",
          "type": "CITY",
          "name": "Yishun New Town",
          "region": "North West Community Development Council",
          "regionCode": "03",
          "regionWdId": "Q5784118",
          "latitude": 1.433333333,
          "longitude": 103.833333333,
          "population": 220320
        },
        {
          "id": 3112321,
          "wikiDataId": "Q1069101",
          "type": "CITY",
          "name": "Choa Chu Kang",
          "region": "Singapore",
          "regionCode": "SG",
          "regionWdId": "Q334",
          "latitude": 1.383333333,
          "longitude": 103.75,
          "population": 190890
        },
        {
          "id": 3150957,
          "wikiDataId": "Q7260156",
          "type": "CITY",
          "name": "Punggol",
          "region": "Singapore",
          "regionCode": "SG",
          "regionWdId": "Q334",
          "latitude": 1.41444,
          "longitude": 103.90694,
          "population": 170560
        },
        {
          "id": 3620966,
          "wikiDataId": "Q4986926",
          "type": "CITY",
          "name": "Bukit Merah",
          "region": "Singapore",
          "regionCode": "SG",
          "regionWdId": "Q334",
          "latitude": 1.28583,
          "longitude": 103.81944,
          "population": 151870
        }
      ],
      "metadata": {
        "currentOffset": 0,
        "totalCount": 68
      }
    }
  },
  "{'countryid': 'FR', 'limit': 1, 'nameprefix': 'Paris', 'sort': 'population'}": {
    "error": "",
    "response": {
      "data": [
        {
          "id": 3056818,
          "wikiDataId": "Q833569",
          "type": "CITY",
          "name": "Paris-l'H\u00f4pital",
          "region": "Bourgogne-Franche-Comt\u00e9",
          "regionCode": "BFC",
          "regionWdId": "Q18578267",
          "latitude": 46.914444444,
          "longitude": 4.635277777,
          "population": 308
        }
      ],
      "metadata": {
        "currentOffset": 0,
        "totalCount": 28
      }
    }
  },
  "{'countryid': 'IT', 'limit': 1, 'nameprefix': 'Rome', 'sort': 'population'}": {
    "error": "",
    "response": {
      "data": [
        {
          "id": 3273027,
          "wikiDataId": "Q18482712",
          "type": "CITY",
          "name": "San Romedio",
          "region": "Trentino-South Tyrol",
          "regionCode": "32",
          "regionWdId": "Q1237",
          "latitude": 46.36905,
          "longitude": 11.10629,
          "population": 2
        }
      ],
      "metadata": {
        "currentOffset": 0,
        "totalCount": 18
      }
    }
  },
  "{'countryid': 'IT', 'nameprefix': 'Venice', 'types': 'CITY', 'limit': 5}": {
    "error": "",
    "response": {
      "data": [
        {
          "id": 3182629,
          "wikiDataId": "Q3678587",
          "type": "CITY",
          "name": "Metropolitan City of Venice",
          "region": "Veneto",
          "regionCode": "34",
          "regionWdId": "Q1243",
          "latitude": 45.4397,
          "longitude": 12.3319,
          "population": 857841
        },
        {
          "id": 58788,
          "wikiDataId": "Q641",
          "type": "CITY",
          "name": "Venice",
          "region": "Veneto",
          "regionCode": "34",
          "regionWdId": "Q1243",
          "latitude": 45.439722222,
          "longitude": 12.331944444,
          "population": 254850
        }
      ],
      "metadata": {
        "currentOffset": 0,
        "totalCount": 2
      }
    }
  },
  "{'countryid': 'IT', 'nameprefix': 'venice', 'limit': 5}": {
    "error": "",
    "response": {
      "data": [
        {
          "id": 3182629,
          "wikiDataId": "Q3678587",
          "type": "CITY",
          "name": "Metropolitan City of Venice",
          "region": "Veneto",
          "regionCode": "34",
          "regionWdId": "Q1243",
          "latitude": 45.4397,
          "longitude": 12.3319,
          "population": 857841
        },
        {
          "id": 58788,
          "wikiDataId": "Q641",
          "type": "CITY",
          "name": "Venice",
          "region": "Veneto",
          "regionCode": "34",
          "regionWdId": "Q1243",
          "latitude": 45.439722222,
          "longitude": 12.331944444,
          "population": 254850
        }
      ],
      "metadata": {
        "currentOffset": 0,
        "totalCount": 2
      }
    }
  },
  "{'countryid': 'DE', 'limit': 3}": {
    "error": "",
    "response": {
      "data": [
        {
          "id": 3526448,
          "wikiDataId": "Q63806446",
          "type": "CITY",
          "name": "Aabauerschaft",
          "region": "North Rhine-Westphalia",
          "regionCode": "NW",
          "regionWdId": "Q1198",
          "latitude": 52.066666666,
          "longitude": 7.384722222,
          "population": 0
        },
        {
          "id": 3189887,
          "wikiDataId": "Q300691",
          "type": "CITY",
          "name": "Aach",
          "region": "Rhineland-Palatinate",
          "regionCode": "RP",
          "regionWdId": "Q1200",
          "latitude": 49.791111111,
          "longitude": 6.59,
          "population": 1142
        },
        {
          "id": 3661434,
          "wikiDataId": "Q31868004",
          "type": "CITY",
          "name": "Aach",
          "region": "Baden-W\u00fcrttemberg",
          "regionCode": "BW",
          "regionWdId": "Q985",
          "latitude": 47.8425,
          "longitude": 8.853888888,
          "population": 2248
        }
      ],
      "metadata": {
        "currentOffset": 0,
        "totalCount": 26440
      }
    }
  },
  "{'countryid': 'IT', 'nameprefix': 'Venice', 'limit': 1}": {
    "error": "",
    "response": {
      "data": [
        {
          "id": 3182629,
          "wikiDataId": "Q3678587",
          "type": "CITY",
          "name": "Metropolitan City of Venice",
          "region": "Veneto",
          "regionCode": "34",
          "regionWdId": "Q1243",
          "latitude": 45.4397,
          "longitude": 12.3319,
          "population": 857841
        }
      ],
      "metadata": {
        "currentOffset": 0,
        "totalCount": 2
      }
    }
  },
  "{'countryid': 'CA', 'languagecode': 'en'}": {
    "error": "",
    "response": {
      "data": [
        {
          "id": 2374705,
          "wikiDataId": "Q165174",
          "type": "CITY",
          "name": "100 Mile House",
          "region": "British Columbia",
          "regionCode": "BC",
          "regionWdId": "Q1973",
          "latitude": 51.641944444,
          "longitude": -121.297222222,
          "population": 1980
        },
        {
          "id": 3518437,
          "wikiDataId": "Q4546581",
          "type": "CITY",
          "name": "105 Mile House",
          "region": "British Columbia",
          "regionCode": "BC",
          "regionWdId": "Q1973",
          "latitude": 51.7,
          "longitude": -121.317,
          "population": 0
        },
        {
          "id": 3194291,
          "wikiDataId": "Q2818213",
          "type": "CITY",
          "name": "70 Mile House",
          "region": "British Columbia",
          "regionCode": "BC",
          "regionWdId": "Q1973",
          "latitude": 51.3036,
          "longitude": -121.397,
          "population": 0
        },
        {
          "id": 3638256,
          "wikiDataId": "Q22351321",
          "type": "ISLAND",
          "name": "A Island",
          "region": "Ontario",
          "regionCode": "ON",
          "regionWdId": "Q1904",
          "latitude": 46.74868,
          "longitude": -80.67252,
          "population": 0
        },
        {
          "id": 3657243,
          "wikiDataId": "Q22370160",
          "type": "ISLAND",
          "name": "A:mak:nit Island",
          "region": "British Columbia",
          "regionCode": "BC",
          "regionWdId": "Q1973",
          "latitude": 50.01739,
          "longitude": -127.39188,
          "population": 0
        }
      ],
      "metadata": {
        "currentOffset": 0,
        "totalCount": 25545
      }
    }
  },
  "{'countryid': 'IT', 'limit': 1, 'nameprefix': 'Ven'}": {
    "error": "",
    "response": {
      "data": [
        {
          "id": 3431029,
          "wikiDataId": "Q18505788",
          "type": "CITY",
          "name": "Aggregato Rossano Veneto",
          "region": "Veneto",
          "regionCode": "34",
          "regionWdId": "Q1243",
          "latitude": 45.69986,
          "longitude": 11.7869,
          "population": 6
        }
      ],
      "metadata": {
        "currentOffset": 0,
        "totalCount": 191
      }
    }
  },
  "{'countryid': 'IT', 'nameprefix': 'Venice', 'limit': 10}": {
    "error": "",
    "response": {
      "data": [
        {
          "id": 3182629,
          "wikiDataId": "Q3678587",
          "type": "CITY",
          "name": "Metropolitan City of Venice",
          "region": "Veneto",
          "regionCode": "34",
          "regionWdId": "Q1243",
          "latitude": 45.4397,
          "longitude": 12.3319,
          "population": 857841
        },
        {
          "id": 58788,
          "wikiDataId": "Q641",
          "type": "CITY",
          "name": "Venice",
          "region": "Veneto",
          "regionCode": "34",
          "regionWdId": "Q1243",
          "latitude": 45.439722222,
          "longitude": 12.331944444,
          "population": 254850
        }
      ],
      "metadata": {
        "currentOffset": 0,
        "totalCount": 2
      }
    }
  },
  "{'countryid': 'IT', 'limit': 1, 'languagecode': 'en'}": {
    "error": "",
    "response": {
      "data": [
        {
          "id": 3292475,
          "wikiDataId": "Q18488374",
          "type": "CITY",
          "name": "A Bertolacci",
          "region": "Tuscany",
          "regionCode": "52",
          "regionWdId": "Q1273",
          "latitude": 43.92125,
          "longitude": 10.48318,
          "population": 32
        }
      ],
      "metadata": {
        "currentOffset": 0,
        "totalCount": 59957
      }
    }
  },
  "{'countryid': 'ES', 'limit': 1, 'languagecode': 'en'}": {
    "error": "",
    "response": {
      "data": [
        {
          "id": 3501262,
          "wikiDataId": "Q8183929",
          "type": "CITY",
          "name": "A Abeleda",
          "region": "Galicia",
          "regionCode": "GA",
          "regionWdId": "Q3908",
          "latitude": 42.17629,
          "longitude": -7.71043,
          "population": 325
        }
      ],
      "metadata": {
        "currentOffset": 0,
        "totalCount": 16667
      }
    }
  },
  "{'countryid': 'SG', 'limit': 5, 'types': 'CITY', 'sort': '-population'}": {
    "error": "",
    "response": {
      "data": [
        {
          "id": 3516906,
          "wikiDataId": "Q334",
          "type": "CITY",
          "name": "Singapore",
          "region": "Singapore",
          "regionCode": "SG",
          "regionWdId": "Q334",
          "latitude": 1.3,
          "longitude": 103.8,
          "population": 5866139
        },
        {
          "id": 3102157,
          "wikiDataId": "Q8053844",
          "type": "CITY",
          "name": "Yishun New Town",
          "region": "North West Community Development Council",
          "regionCode": "03",
          "regionWdId": "Q5784118",
          "latitude": 1.433333333,
          "longitude": 103.833333333,
          "population": 220320
        },
        {
          "id": 3112321,
          "wikiDataId": "Q1069101",
          "type": "CITY",
          "name": "Choa Chu Kang",
          "region": "Singapore",
          "regionCode": "SG",
          "regionWdId": "Q334",
          "latitude": 1.383333333,
          "longitude": 103.75,
          "population": 190890
        },
        {
          "id": 3150957,
          "wikiDataId": "Q7260156",
          "type": "CITY",
          "name": "Punggol",
          "region": "Singapore",
          "regionCode": "SG",
          "regionWdId": "Q334",
          "latitude": 1.41444,
          "longitude": 103.90694,
          "population": 170560
        },
        {
          "id": 3620966,
          "wikiDataId": "Q4986926",
          "type": "CITY",
          "name": "Bukit Merah",
          "region": "Singapore",
          "regionCode": "SG",
          "regionWdId": "Q334",
          "latitude": 1.28583,
          "longitude": 103.81944,
          "population": 151870
        }
      ],
      "metadata": {
        "currentOffset": 0,
        "totalCount": 23
      }
    }
  },
  "{'countryid': 'IT', 'nameprefix': 'Ven'}": {
    "error": "",
    "response": {
      "data": [
        {
          "id": 3431029,
          "wikiDataId": "Q18505788",
          "type": "CITY",
          "name": "Aggregato Rossano Veneto",
          "region": "Veneto",
          "regionCode": "34",
          "regionWdId": "Q1243",
          "latitude": 45.69986,
          "longitude": 11.7869,
          "population": 6
        },
        {
          "id": 3621764,
          "wikiDataId": "Q30022236",
          "type": "CITY",
          "name": "Anguillara Veneta",
          "region": "Veneto",
          "regionCode": "34",
          "regionWdId": "Q1243",
          "latitude": 45.14249,
          "longitude": 11.88461,
          "population": 2938
        },
        {
          "id": 65540,
          "wikiDataId": "Q34665",
          "type": "CITY",
          "name": "Anguillara Veneta",
          "region": "Veneto",
          "regionCode": "34",
          "regionWdId": "Q1243",
          "latitude": 45.15,
          "longitude": 11.883333333,
          "population": 4325
        },
        {
          "id": 64852,
          "wikiDataId": "Q47186",
          "type": "CITY",
          "name": "Annone Veneto",
          "region": "Veneto",
          "regionCode": "34",
          "regionWdId": "Q1243",
          "latitude": 45.8,
          "longitude": 12.683333333,
          "population": 3932
        },
        {
          "id": 3630309,
          "wikiDataId": "Q30022397",
          "type": "CITY",
          "name": "Asigliano Veneto",
          "region": "Veneto",
          "regionCode": "34",
          "regionWdId": "Q1243",
          "latitude": 45.30469,
          "longitude": 11.4464,
          "population": 406
        }
      ],
      "metadata": {
        "currentOffset": 0,
        "totalCount": 191
      }
    }
  },
  "{'countryid': 'IT', 'nameprefix': 'Veneto', 'limit': 1}": {
    "error": "",
    "response": {
      "data": [
        {
          "id": 3431029,
          "wikiDataId": "Q18505788",
          "type": "CITY",
          "name": "Aggregato Rossano Veneto",
          "region": "Veneto",
          "regionCode": "34",
          "regionWdId": "Q1243",
          "latitude": 45.69986,
          "longitude": 11.7869,
          "population": 6
        }
      ],
      "metadata": {
        "currentOffset": 0,
        "totalCount": 24
      }
    }
  },
  "{'countryid': 'IT', 'limit': 1, 'sort': 'name', 'languagecode': 'en'}": {
    "error": "",
    "response": {
      "data": [
        {
          "id": 3292475,
          "wikiDataId": "Q18488374",
          "type": "CITY",
          "name": "A Bertolacci",
          "region": "Tuscany",
          "regionCode": "52",
          "regionWdId": "Q1273",
          "latitude": 43.92125,
          "longitude": 10.48318,
          "population": 32
        }
      ],
      "metadata": {
        "currentOffset": 0,
        "totalCount": 59960
      }
    }
  },
  "{'countryid': 'ES', 'limit': 1, 'sort': 'name', 'languagecode': 'en'}": {
    "error": "",
    "response": {
      "data": [
        {
          "id": 3501262,
          "wikiDataId": "Q8183929",
          "type": "CITY",
          "name": "A Abeleda",
          "region": "Galicia",
          "regionCode": "GA",
          "regionWdId": "Q3908",
          "latitude": 42.17629,
          "longitude": -7.71043,
          "population": 325
        }
      ],
      "metadata": {
        "currentOffset": 0,
        "totalCount": 16680
      }
    }
  },
  "{'countryid': 'SG', 'limit': 5, 'maxpopulation': 0, 'types': 'CITY', 'sort': '-population'}": {
    "error": "",
    "response": {
      "data": [
        {
          "id": 3516906,
          "wikiDataId": "Q334",
          "type": "CITY",
          "name": "Singapore",
          "region": "Singapore",
          "regionCode": "SG",
          "regionWdId": "Q334",
          "latitude": 1.3,
          "longitude": 103.8,
          "population": 5866139
        },
        {
          "id": 3102157,
          "wikiDataId": "Q8053844",
          "type": "CITY",
          "name": "Yishun New Town",
          "region": "North West Community Development Council",
          "regionCode": "03",
          "regionWdId": "Q5784118",
          "latitude": 1.433333333,
          "longitude": 103.833333333,
          "population": 220320
        },
        {
          "id": 3112321,
          "wikiDataId": "Q1069101",
          "type": "CITY",
          "name": "Choa Chu Kang",
          "region": "Singapore",
          "regionCode": "SG",
          "regionWdId": "Q334",
          "latitude": 1.383333333,
          "longitude": 103.75,
          "population": 190890
        },
        {
          "id": 3150957,
          "wikiDataId": "Q7260156",
          "type": "CITY",
          "name": "Punggol",
          "region": "Singapore",
          "regionCode": "SG",
          "regionWdId": "Q334",
          "latitude": 1.41444,
          "longitude": 103.90694,
          "population": 170560
        },
        {
          "id": 3620966,
          "wikiDataId": "Q4986926",
          "type": "CITY",
          "name": "Bukit Merah",
          "region": "Singapore",
          "regionCode": "SG",
          "regionWdId": "Q334",
          "latitude": 1.28583,
          "longitude": 103.81944,
          "population": 151870
        }
      ],
      "metadata": {
        "currentOffset": 0,
        "totalCount": 23
      }
    }
  },
  "{'countryid': 'SG', 'limit': 10}": {
    "error": "",
    "response": {
      "data": [
        {
          "id": 3653040,
          "wikiDataId": "Q49631717",
          "type": "ISLAND",
          "name": "Anak Pulau",
          "latitude": 1.28833,
          "longitude": 103.69417,
          "population": 0
        },
        {
          "id": 3580710,
          "wikiDataId": "Q3536317",
          "type": "ISLAND",
          "name": "Biola",
          "region": "Singapore",
          "regionCode": "SG",
          "regionWdId": "Q334",
          "latitude": 1.164,
          "longitude": 103.74222222,
          "population": 0
        },
        {
          "id": 3624121,
          "wikiDataId": "Q3249777",
          "type": "CITY",
          "name": "Bishan",
          "region": "Singapore",
          "regionCode": "SG",
          "regionWdId": "Q334",
          "latitude": 1.35083,
          "longitude": 103.851,
          "population": 0
        },
        {
          "id": 3620966,
          "wikiDataId": "Q4986926",
          "type": "CITY",
          "name": "Bukit Merah",
          "region": "Singapore",
          "regionCode": "SG",
          "regionWdId": "Q334",
          "latitude": 1.28583,
          "longitude": 103.81944,
          "population": 151870
        },
        {
          "id": 3642981,
          "wikiDataId": "Q2224065",
          "type": "CITY",
          "name": "Bukit Panjang",
          "region": "Singapore",
          "regionCode": "SG",
          "regionWdId": "Q334",
          "latitude": 1.37278,
          "longitude": 103.75444,
          "population": 0
        },
        {
          "id": 3602817,
          "wikiDataId": "Q1812824",
          "type": "CITY",
          "name": "Changi",
          "region": "Singapore",
          "regionCode": "SG",
          "regionWdId": "Q334",
          "latitude": 1.39148,
          "longitude": 103.9906,
          "population": 0
        },
        {
          "id": 3155743,
          "wikiDataId": "Q5072003",
          "type": "ADM2",
          "name": "Changi Village",
          "region": "Singapore",
          "regionCode": "SG",
          "regionWdId": "Q334",
          "latitude": 1.383333333,
          "longitude": 103.983333333,
          "population": 1810
        },
        {
          "id": 3112321,
          "wikiDataId": "Q1069101",
          "type": "CITY",
          "name": "Choa Chu Kang",
          "region": "Singapore",
          "regionCode": "SG",
          "regionWdId": "Q334",
          "latitude": 1.383333333,
          "longitude": 103.75,
          "population": 190890
        },
        {
          "id": 3603849,
          "wikiDataId": "Q49637119",
          "type": "ISLAND",
          "name": "Duran Darat",
          "region": "Singapore",
          "regionCode": "SG",
          "regionWdId": "Q334",
          "latitude": 1.2475,
          "longitude": 103.844722222,
          "population": 0
        },
        {
          "id": 3666580,
          "wikiDataId": "Q525295",
          "type": "CITY",
          "name": "Geylang",
          "region": "Singapore",
          "regionCode": "SG",
          "regionWdId": "Q334",
          "latitude": 1.31953,
          "longitude": 103.88689,
          "population": 110200
        }
      ],
      "metadata": {
        "currentOffset": 0,
        "totalCount": 68
      }
    }
  },
  "{'countryid': 'IT', 'nameprefix': 'ven'}": {
    "error": "",
    "response": {
      "data": [
        {
          "id": 3431029,
          "wikiDataId": "Q18505788",
          "type": "CITY",
          "name": "Aggregato Rossano Veneto",
          "region": "Veneto",
          "regionCode": "34",
          "regionWdId": "Q1243",
          "latitude": 45.69986,
          "longitude": 11.7869,
          "population": 6
        },
        {
          "id": 3621764,
          "wikiDataId": "Q30022236",
          "type": "CITY",
          "name": "Anguillara Veneta",
          "region": "Veneto",
          "regionCode": "34",
          "regionWdId": "Q1243",
          "latitude": 45.14249,
          "longitude": 11.88461,
          "population": 2938
        },
        {
          "id": 65540,
          "wikiDataId": "Q34665",
          "type": "CITY",
          "name": "Anguillara Veneta",
          "region": "Veneto",
          "regionCode": "34",
          "regionWdId": "Q1243",
          "latitude": 45.15,
          "longitude": 11.883333333,
          "population": 4325
        },
        {
          "id": 64852,
          "wikiDataId": "Q47186",
          "type": "CITY",
          "name": "Annone Veneto",
          "region": "Veneto",
          "regionCode": "34",
          "regionWdId": "Q1243",
          "latitude": 45.8,
          "longitude": 12.683333333,
          "population": 3932
        },
        {
          "id": 3630309,
          "wikiDataId": "Q30022397",
          "type": "CITY",
          "name": "Asigliano Veneto",
          "region": "Veneto",
          "regionCode": "34",
          "regionWdId": "Q1243",
          "latitude": 45.30469,
          "longitude": 11.4464,
          "population": 406
        }
      ],
      "metadata": {
        "currentOffset": 0,
        "totalCount": 191
      }
    }
  },
  "{'countryid': 'SG', 'limit': 5, 'maxpopulation': 1000000000}": {
    "error": "",
    "response": {
      "data": [
        {
          "id": 3653040,
          "wikiDataId": "Q49631717",
          "type": "ISLAND",
          "name": "Anak Pulau",
          "latitude": 1.28833,
          "longitude": 103.69417,
          "population": 0
        },
        {
          "id": 3580710,
          "wikiDataId": "Q3536317",
          "type": "ISLAND",
          "name": "Biola",
          "region": "Singapore",
          "regionCode": "SG",
          "regionWdId": "Q334",
          "latitude": 1.164,
          "longitude": 103.74222222,
          "population": 0
        },
        {
          "id": 3624121,
          "wikiDataId": "Q3249777",
          "type": "CITY",
          "name": "Bishan",
          "region": "Singapore",
          "regionCode": "SG",
          "regionWdId": "Q334",
          "latitude": 1.35083,
          "longitude": 103.851,
          "population": 0
        },
        {
          "id": 3620966,
          "wikiDataId": "Q4986926",
          "type": "CITY",
          "name": "Bukit Merah",
          "region": "Singapore",
          "regionCode": "SG",
          "regionWdId": "Q334",
          "latitude": 1.28583,
          "longitude": 103.81944,
          "population": 151870
        },
        {
          "id": 3642981,
          "wikiDataId": "Q2224065",
          "type": "CITY",
          "name": "Bukit Panjang",
          "region": "Singapore",
          "regionCode": "SG",
          "regionWdId": "Q334",
          "latitude": 1.37278,
          "longitude": 103.75444,
          "population": 0
        }
      ],
      "metadata": {
        "currentOffset": 0,
        "totalCount": 68
      }
    }
  },
  "{'countryid': 'SG', 'limit': 5, 'languagecode': 'en', 'sort': '-population'}": {
    "error": "",
    "response": {
      "data": [
        {
          "id": 3516906,
          "wikiDataId": "Q334",
          "type": "CITY",
          "name": "Singapore",
          "region": "Singapore",
          "regionCode": "SG",
          "regionWdId": "Q334",
          "latitude": 1.3,
          "longitude": 103.8,
          "population": 5866139
        },
        {
          "id": 3102157,
          "wikiDataId": "Q8053844",
          "type": "CITY",
          "name": "Yishun New Town",
          "region": "North West Community Development Council",
          "regionCode": "03",
          "regionWdId": "Q5784118",
          "latitude": 1.433333333,
          "longitude": 103.833333333,
          "population": 220320
        },
        {
          "id": 3112321,
          "wikiDataId": "Q1069101",
          "type": "CITY",
          "name": "Choa Chu Kang",
          "region": "Singapore",
          "regionCode": "SG",
          "regionWdId": "Q334",
          "latitude": 1.383333333,
          "longitude": 103.75,
          "population": 190890
        },
        {
          "id": 3150957,
          "wikiDataId": "Q7260156",
          "type": "CITY",
          "name": "Punggol",
          "region": "Singapore",
          "regionCode": "SG",
          "regionWdId": "Q334",
          "latitude": 1.41444,
          "longitude": 103.90694,
          "population": 170560
        },
        {
          "id": 3620966,
          "wikiDataId": "Q4986926",
          "type": "CITY",
          "name": "Bukit Merah",
          "region": "Singapore",
          "regionCode": "SG",
          "regionWdId": "Q334",
          "latitude": 1.28583,
          "longitude": 103.81944,
          "population": 151870
        }
      ],
      "metadata": {
        "currentOffset": 0,
        "totalCount": 68
      }
    }
  },
  "{'countryid': 'SG', 'limit': 5, 'languagecode': 'en', 'maxpopulation': 0, 'sort': '-population'}": {
    "error": "",
    "response": {
      "data": [
        {
          "id": 3516906,
          "wikiDataId": "Q334",
          "type": "CITY",
          "name": "Singapore",
          "region": "Singapore",
          "regionCode": "SG",
          "regionWdId": "Q334",
          "latitude": 1.3,
          "longitude": 103.8,
          "population": 5866139
        },
        {
          "id": 3102157,
          "wikiDataId": "Q8053844",
          "type": "CITY",
          "name": "Yishun New Town",
          "region": "North West Community Development Council",
          "regionCode": "03",
          "regionWdId": "Q5784118",
          "latitude": 1.433333333,
          "longitude": 103.833333333,
          "population": 220320
        },
        {
          "id": 3112321,
          "wikiDataId": "Q1069101",
          "type": "CITY",
          "name": "Choa Chu Kang",
          "region": "Singapore",
          "regionCode": "SG",
          "regionWdId": "Q334",
          "latitude": 1.383333333,
          "longitude": 103.75,
          "population": 190890
        },
        {
          "id": 3150957,
          "wikiDataId": "Q7260156",
          "type": "CITY",
          "name": "Punggol",
          "region": "Singapore",
          "regionCode": "SG",
          "regionWdId": "Q334",
          "latitude": 1.41444,
          "longitude": 103.90694,
          "population": 170560
        },
        {
          "id": 3620966,
          "wikiDataId": "Q4986926",
          "type": "CITY",
          "name": "Bukit Merah",
          "region": "Singapore",
          "regionCode": "SG",
          "regionWdId": "Q334",
          "latitude": 1.28583,
          "longitude": 103.81944,
          "population": 151870
        }
      ],
      "metadata": {
        "currentOffset": 0,
        "totalCount": 68
      }
    }
  },
  "{'countryid': 'SG', 'limit': 5, 'languagecode': 'en', 'minpopulation': 100000}": {
    "error": "",
    "response": {
      "data": [
        {
          "id": 3620966,
          "wikiDataId": "Q4986926",
          "type": "CITY",
          "name": "Bukit Merah",
          "region": "Singapore",
          "regionCode": "SG",
          "regionWdId": "Q334",
          "latitude": 1.28583,
          "longitude": 103.81944,
          "population": 151870
        },
        {
          "id": 3112321,
          "wikiDataId": "Q1069101",
          "type": "CITY",
          "name": "Choa Chu Kang",
          "region": "Singapore",
          "regionCode": "SG",
          "regionWdId": "Q334",
          "latitude": 1.383333333,
          "longitude": 103.75,
          "population": 190890
        },
        {
          "id": 3666580,
          "wikiDataId": "Q525295",
          "type": "CITY",
          "name": "Geylang",
          "region": "Singapore",
          "regionCode": "SG",
          "regionWdId": "Q334",
          "latitude": 1.31953,
          "longitude": 103.88689,
          "population": 110200
        },
        {
          "id": 3156726,
          "wikiDataId": "Q4259440",
          "type": "CITY",
          "name": "Pasir Ris",
          "region": "Singapore",
          "regionCode": "SG",
          "regionWdId": "Q334",
          "latitude": 1.37222,
          "longitude": 103.94778,
          "population": 148020
        },
        {
          "id": 3150957,
          "wikiDataId": "Q7260156",
          "type": "CITY",
          "name": "Punggol",
          "region": "Singapore",
          "regionCode": "SG",
          "regionWdId": "Q334",
          "latitude": 1.41444,
          "longitude": 103.90694,
          "population": 170560
        }
      ],
      "metadata": {
        "currentOffset": 0,
        "totalCount": 8
      }
    }
  },
  "{'countryid': 'SG', 'limit': 5, 'maxpopulation': 0, 'languagecode': 'en'}": {
    "error": "",
    "response": {
      "data": [
        {
          "id": 3653040,
          "wikiDataId": "Q49631717",
          "type": "ISLAND",
          "name": "Anak Pulau",
          "latitude": 1.28833,
          "longitude": 103.69417,
          "population": 0
        },
        {
          "id": 3580710,
          "wikiDataId": "Q3536317",
          "type": "ISLAND",
          "name": "Biola",
          "region": "Singapore",
          "regionCode": "SG",
          "regionWdId": "Q334",
          "latitude": 1.164,
          "longitude": 103.74222222,
          "population": 0
        },
        {
          "id": 3624121,
          "wikiDataId": "Q3249777",
          "type": "CITY",
          "name": "Bishan",
          "region": "Singapore",
          "regionCode": "SG",
          "regionWdId": "Q334",
          "latitude": 1.35083,
          "longitude": 103.851,
          "population": 0
        },
        {
          "id": 3620966,
          "wikiDataId": "Q4986926",
          "type": "CITY",
          "name": "Bukit Merah",
          "region": "Singapore",
          "regionCode": "SG",
          "regionWdId": "Q334",
          "latitude": 1.28583,
          "longitude": 103.81944,
          "population": 151870
        },
        {
          "id": 3642981,
          "wikiDataId": "Q2224065",
          "type": "CITY",
          "name": "Bukit Panjang",
          "region": "Singapore",
          "regionCode": "SG",
          "regionWdId": "Q334",
          "latitude": 1.37278,
          "longitude": 103.75444,
          "population": 0
        }
      ],
      "metadata": {
        "currentOffset": 0,
        "totalCount": 68
      }
    }
  },
  "{'countryid': 'SG', 'limit': 5, 'maxpopulation': 0}": {
    "error": "",
    "response": {
      "data": [
        {
          "id": 3653040,
          "wikiDataId": "Q49631717",
          "type": "ISLAND",
          "name": "Anak Pulau",
          "latitude": 1.28833,
          "longitude": 103.69417,
          "population": 0
        },
        {
          "id": 3580710,
          "wikiDataId": "Q3536317",
          "type": "ISLAND",
          "name": "Biola",
          "region": "Singapore",
          "regionCode": "SG",
          "regionWdId": "Q334",
          "latitude": 1.164,
          "longitude": 103.74222222,
          "population": 0
        },
        {
          "id": 3624121,
          "wikiDataId": "Q3249777",
          "type": "CITY",
          "name": "Bishan",
          "region": "Singapore",
          "regionCode": "SG",
          "regionWdId": "Q334",
          "latitude": 1.35083,
          "longitude": 103.851,
          "population": 0
        },
        {
          "id": 3620966,
          "wikiDataId": "Q4986926",
          "type": "CITY",
          "name": "Bukit Merah",
          "region": "Singapore",
          "regionCode": "SG",
          "regionWdId": "Q334",
          "latitude": 1.28583,
          "longitude": 103.81944,
          "population": 151870
        },
        {
          "id": 3642981,
          "wikiDataId": "Q2224065",
          "type": "CITY",
          "name": "Bukit Panjang",
          "region": "Singapore",
          "regionCode": "SG",
          "regionWdId": "Q334",
          "latitude": 1.37278,
          "longitude": 103.75444,
          "population": 0
        }
      ],
      "metadata": {
        "currentOffset": 0,
        "totalCount": 68
      }
    }
  },
  "{'countryid': 'SG', 'limit': 5, 'maxpopulation': 1000000}": {
    "error": "",
    "response": {
      "data": [
        {
          "id": 3653040,
          "wikiDataId": "Q49631717",
          "type": "ISLAND",
          "name": "Anak Pulau",
          "latitude": 1.28833,
          "longitude": 103.69417,
          "population": 0
        },
        {
          "id": 3580710,
          "wikiDataId": "Q3536317",
          "type": "ISLAND",
          "name": "Biola",
          "region": "Singapore",
          "regionCode": "SG",
          "regionWdId": "Q334",
          "latitude": 1.164,
          "longitude": 103.74222222,
          "population": 0
        },
        {
          "id": 3624121,
          "wikiDataId": "Q3249777",
          "type": "CITY",
          "name": "Bishan",
          "region": "Singapore",
          "regionCode": "SG",
          "regionWdId": "Q334",
          "latitude": 1.35083,
          "longitude": 103.851,
          "population": 0
        },
        {
          "id": 3620966,
          "wikiDataId": "Q4986926",
          "type": "CITY",
          "name": "Bukit Merah",
          "region": "Singapore",
          "regionCode": "SG",
          "regionWdId": "Q334",
          "latitude": 1.28583,
          "longitude": 103.81944,
          "population": 151870
        },
        {
          "id": 3642981,
          "wikiDataId": "Q2224065",
          "type": "CITY",
          "name": "Bukit Panjang",
          "region": "Singapore",
          "regionCode": "SG",
          "regionWdId": "Q334",
          "latitude": 1.37278,
          "longitude": 103.75444,
          "population": 0
        }
      ],
      "metadata": {
        "currentOffset": 0,
        "totalCount": 67
      }
    }
  },
  "{'countryid': 'SG', 'limit': 5, 'maxpopulation': 10000000}": {
    "error": "",
    "response": {
      "data": [
        {
          "id": 3653040,
          "wikiDataId": "Q49631717",
          "type": "ISLAND",
          "name": "Anak Pulau",
          "latitude": 1.28833,
          "longitude": 103.69417,
          "population": 0
        },
        {
          "id": 3580710,
          "wikiDataId": "Q3536317",
          "type": "ISLAND",
          "name": "Biola",
          "region": "Singapore",
          "regionCode": "SG",
          "regionWdId": "Q334",
          "latitude": 1.164,
          "longitude": 103.74222222,
          "population": 0
        },
        {
          "id": 3624121,
          "wikiDataId": "Q3249777",
          "type": "CITY",
          "name": "Bishan",
          "region": "Singapore",
          "regionCode": "SG",
          "regionWdId": "Q334",
          "latitude": 1.35083,
          "longitude": 103.851,
          "population": 0
        },
        {
          "id": 3620966,
          "wikiDataId": "Q4986926",
          "type": "CITY",
          "name": "Bukit Merah",
          "region": "Singapore",
          "regionCode": "SG",
          "regionWdId": "Q334",
          "latitude": 1.28583,
          "longitude": 103.81944,
          "population": 151870
        },
        {
          "id": 3642981,
          "wikiDataId": "Q2224065",
          "type": "CITY",
          "name": "Bukit Panjang",
          "region": "Singapore",
          "regionCode": "SG",
          "regionWdId": "Q334",
          "latitude": 1.37278,
          "longitude": 103.75444,
          "population": 0
        }
      ],
      "metadata": {
        "currentOffset": 0,
        "totalCount": 68
      }
    }
  },
  "{'countryid': 'SG', 'limit': 5, 'minpopulation': 100000}": {
    "error": "",
    "response": {
      "data": [
        {
          "id": 3620966,
          "wikiDataId": "Q4986926",
          "type": "CITY",
          "name": "Bukit Merah",
          "region": "Singapore",
          "regionCode": "SG",
          "regionWdId": "Q334",
          "latitude": 1.28583,
          "longitude": 103.81944,
          "population": 151870
        },
        {
          "id": 3112321,
          "wikiDataId": "Q1069101",
          "type": "CITY",
          "name": "Choa Chu Kang",
          "region": "Singapore",
          "regionCode": "SG",
          "regionWdId": "Q334",
          "latitude": 1.383333333,
          "longitude": 103.75,
          "population": 190890
        },
        {
          "id": 3666580,
          "wikiDataId": "Q525295",
          "type": "CITY",
          "name": "Geylang",
          "region": "Singapore",
          "regionCode": "SG",
          "regionWdId": "Q334",
          "latitude": 1.31953,
          "longitude": 103.88689,
          "population": 110200
        },
        {
          "id": 3156726,
          "wikiDataId": "Q4259440",
          "type": "CITY",
          "name": "Pasir Ris",
          "region": "Singapore",
          "regionCode": "SG",
          "regionWdId": "Q334",
          "latitude": 1.37222,
          "longitude": 103.94778,
          "population": 148020
        },
        {
          "id": 3150957,
          "wikiDataId": "Q7260156",
          "type": "CITY",
          "name": "Punggol",
          "region": "Singapore",
          "regionCode": "SG",
          "regionWdId": "Q334",
          "latitude": 1.41444,
          "longitude": 103.90694,
          "population": 170560
        }
      ],
      "metadata": {
        "currentOffset": 0,
        "totalCount": 8
      }
    }
  },
  "{'countryid': 'SG', 'limit': 5, 'maxpopulation': 99999999}": {
    "error": "",
    "response": {
      "data": [
        {
          "id": 3653040,
          "wikiDataId": "Q49631717",
          "type": "ISLAND",
          "name": "Anak Pulau",
          "latitude": 1.28833,
          "longitude": 103.69417,
          "population": 0
        },
        {
          "id": 3580710,
          "wikiDataId": "Q3536317",
          "type": "ISLAND",
          "name": "Biola",
          "region": "Singapore",
          "regionCode": "SG",
          "regionWdId": "Q334",
          "latitude": 1.164,
          "longitude": 103.74222222,
          "population": 0
        },
        {
          "id": 3624121,
          "wikiDataId": "Q3249777",
          "type": "CITY",
          "name": "Bishan",
          "region": "Singapore",
          "regionCode": "SG",
          "regionWdId": "Q334",
          "latitude": 1.35083,
          "longitude": 103.851,
          "population": 0
        },
        {
          "id": 3620966,
          "wikiDataId": "Q4986926",
          "type": "CITY",
          "name": "Bukit Merah",
          "region": "Singapore",
          "regionCode": "SG",
          "regionWdId": "Q334",
          "latitude": 1.28583,
          "longitude": 103.81944,
          "population": 151870
        },
        {
          "id": 3642981,
          "wikiDataId": "Q2224065",
          "type": "CITY",
          "name": "Bukit Panjang",
          "region": "Singapore",
          "regionCode": "SG",
          "regionWdId": "Q334",
          "latitude": 1.37278,
          "longitude": 103.75444,
          "population": 0
        }
      ],
      "metadata": {
        "currentOffset": 0,
        "totalCount": 68
      }
    }
  },
  "{'countryid': 'SG', 'limit': 5, 'maxpopulation': 1000000, 'sort': '-population'}": {
    "error": "",
    "response": {
      "data": [
        {
          "id": 3102157,
          "wikiDataId": "Q8053844",
          "type": "CITY",
          "name": "Yishun New Town",
          "region": "North West Community Development Council",
          "regionCode": "03",
          "regionWdId": "Q5784118",
          "latitude": 1.433333333,
          "longitude": 103.833333333,
          "population": 220320
        },
        {
          "id": 3112321,
          "wikiDataId": "Q1069101",
          "type": "CITY",
          "name": "Choa Chu Kang",
          "region": "Singapore",
          "regionCode": "SG",
          "regionWdId": "Q334",
          "latitude": 1.383333333,
          "longitude": 103.75,
          "population": 190890
        },
        {
          "id": 3150957,
          "wikiDataId": "Q7260156",
          "type": "CITY",
          "name": "Punggol",
          "region": "Singapore",
          "regionCode": "SG",
          "regionWdId": "Q334",
          "latitude": 1.41444,
          "longitude": 103.90694,
          "population": 170560
        },
        {
          "id": 3620966,
          "wikiDataId": "Q4986926",
          "type": "CITY",
          "name": "Bukit Merah",
          "region": "Singapore",
          "regionCode": "SG",
          "regionWdId": "Q334",
          "latitude": 1.28583,
          "longitude": 103.81944,
          "population": 151870
        },
        {
          "id": 3156726,
          "wikiDataId": "Q4259440",
          "type": "CITY",
          "name": "Pasir Ris",
          "region": "Singapore",
          "regionCode": "SG",
          "regionWdId": "Q334",
          "latitude": 1.37222,
          "longitude": 103.94778,
          "population": 148020
        }
      ],
      "metadata": {
        "currentOffset": 0,
        "totalCount": 67
      }
    }
  },
  "{'countryid': 'SG', 'limit': 5, 'minpopulation': 1}": {
    "error": "",
    "response": {
      "data": [
        {
          "id": 3620966,
          "wikiDataId": "Q4986926",
          "type": "CITY",
          "name": "Bukit Merah",
          "region": "Singapore",
          "regionCode": "SG",
          "regionWdId": "Q334",
          "latitude": 1.28583,
          "longitude": 103.81944,
          "population": 151870
        },
        {
          "id": 3155743,
          "wikiDataId": "Q5072003",
          "type": "ADM2",
          "name": "Changi Village",
          "region": "Singapore",
          "regionCode": "SG",
          "regionWdId": "Q334",
          "latitude": 1.383333333,
          "longitude": 103.983333333,
          "population": 1810
        },
        {
          "id": 3112321,
          "wikiDataId": "Q1069101",
          "type": "CITY",
          "name": "Choa Chu Kang",
          "region": "Singapore",
          "regionCode": "SG",
          "regionWdId": "Q334",
          "latitude": 1.383333333,
          "longitude": 103.75,
          "population": 190890
        },
        {
          "id": 3666580,
          "wikiDataId": "Q525295",
          "type": "CITY",
          "name": "Geylang",
          "region": "Singapore",
          "regionCode": "SG",
          "regionWdId": "Q334",
          "latitude": 1.31953,
          "longitude": 103.88689,
          "population": 110200
        },
        {
          "id": 3159008,
          "wikiDataId": "Q14439130",
          "type": "CITY",
          "name": "Jurong",
          "region": "South West Community Development Council",
          "regionCode": "05",
          "regionWdId": "Q5784126",
          "latitude": 1.316672222,
          "longitude": 103.716894444,
          "population": 79240
        }
      ],
      "metadata": {
        "currentOffset": 0,
        "totalCount": 13
      }
    }
  },
  "{'countryid': 'SG', 'limit': 5, 'languagecode': 'en', 'maxpopulation': 0, 'types': 'CITY'}": {
    "error": "",
    "response": {
      "data": [
        {
          "id": 3624121,
          "wikiDataId": "Q3249777",
          "type": "CITY",
          "name": "Bishan",
          "region": "Singapore",
          "regionCode": "SG",
          "regionWdId": "Q334",
          "latitude": 1.35083,
          "longitude": 103.851,
          "population": 0
        },
        {
          "id": 3620966,
          "wikiDataId": "Q4986926",
          "type": "CITY",
          "name": "Bukit Merah",
          "region": "Singapore",
          "regionCode": "SG",
          "regionWdId": "Q334",
          "latitude": 1.28583,
          "longitude": 103.81944,
          "population": 151870
        },
        {
          "id": 3642981,
          "wikiDataId": "Q2224065",
          "type": "CITY",
          "name": "Bukit Panjang",
          "region": "Singapore",
          "regionCode": "SG",
          "regionWdId": "Q334",
          "latitude": 1.37278,
          "longitude": 103.75444,
          "population": 0
        },
        {
          "id": 3602817,
          "wikiDataId": "Q1812824",
          "type": "CITY",
          "name": "Changi",
          "region": "Singapore",
          "regionCode": "SG",
          "regionWdId": "Q334",
          "latitude": 1.39148,
          "longitude": 103.9906,
          "population": 0
        },
        {
          "id": 3112321,
          "wikiDataId": "Q1069101",
          "type": "CITY",
          "name": "Choa Chu Kang",
          "region": "Singapore",
          "regionCode": "SG",
          "regionWdId": "Q334",
          "latitude": 1.383333333,
          "longitude": 103.75,
          "population": 190890
        }
      ],
      "metadata": {
        "currentOffset": 0,
        "totalCount": 23
      }
    }
  },
  "{'countryid': 'SG', 'limit': 5, 'types': 'CITY'}": {
    "error": "",
    "response": {
      "data": [
        {
          "id": 3624121,
          "wikiDataId": "Q3249777",
          "type": "CITY",
          "name": "Bishan",
          "region": "Singapore",
          "regionCode": "SG",
          "regionWdId": "Q334",
          "latitude": 1.35083,
          "longitude": 103.851,
          "population": 0
        },
        {
          "id": 3620966,
          "wikiDataId": "Q4986926",
          "type": "CITY",
          "name": "Bukit Merah",
          "region": "Singapore",
          "regionCode": "SG",
          "regionWdId": "Q334",
          "latitude": 1.28583,
          "longitude": 103.81944,
          "population": 151870
        },
        {
          "id": 3642981,
          "wikiDataId": "Q2224065",
          "type": "CITY",
          "name": "Bukit Panjang",
          "region": "Singapore",
          "regionCode": "SG",
          "regionWdId": "Q334",
          "latitude": 1.37278,
          "longitude": 103.75444,
          "population": 0
        },
        {
          "id": 3602817,
          "wikiDataId": "Q1812824",
          "type": "CITY",
          "name": "Changi",
          "region": "Singapore",
          "regionCode": "SG",
          "regionWdId": "Q334",
          "latitude": 1.39148,
          "longitude": 103.9906,
          "population": 0
        },
        {
          "id": 3112321,
          "wikiDataId": "Q1069101",
          "type": "CITY",
          "name": "Choa Chu Kang",
          "region": "Singapore",
          "regionCode": "SG",
          "regionWdId": "Q334",
          "latitude": 1.383333333,
          "longitude": 103.75,
          "population": 190890
        }
      ],
      "metadata": {
        "currentOffset": 0,
        "totalCount": 23
      }
    }
  },
  "{'countryid': 'IT', 'languagecode': 'en', 'nameprefix': 'venice'}": {
    "error": "",
    "response": {
      "data": [
        {
          "id": 3182629,
          "wikiDataId": "Q3678587",
          "type": "CITY",
          "name": "Metropolitan City of Venice",
          "region": "Veneto",
          "regionCode": "34",
          "regionWdId": "Q1243",
          "latitude": 45.4397,
          "longitude": 12.3319,
          "population": 857841
        },
        {
          "id": 58788,
          "wikiDataId": "Q641",
          "type": "CITY",
          "name": "Venice",
          "region": "Veneto",
          "regionCode": "34",
          "regionWdId": "Q1243",
          "latitude": 45.439722222,
          "longitude": 12.331944444,
          "population": 254850
        }
      ],
      "metadata": {
        "currentOffset": 0,
        "totalCount": 2
      }
    }
  },
  "{'countryid': 'IT', 'types': 'CITY', 'nameprefix': 'Venice'}": {
    "error": "",
    "response": {
      "data": [
        {
          "id": 3182629,
          "wikiDataId": "Q3678587",
          "type": "CITY",
          "name": "Metropolitan City of Venice",
          "region": "Veneto",
          "regionCode": "34",
          "regionWdId": "Q1243",
          "latitude": 45.4397,
          "longitude": 12.3319,
          "population": 857841
        },
        {
          "id": 58788,
          "wikiDataId": "Q641",
          "type": "CITY",
          "name": "Venice",
          "region": "Veneto",
          "regionCode": "34",
          "regionWdId": "Q1243",
          "latitude": 45.439722222,
          "longitude": 12.331944444,
          "population": 254850
        }
      ],
      "metadata": {
        "currentOffset": 0,
        "totalCount": 2
      }
    }
  },
  "{'countryid': 'IT', 'limit': 1, 'languagecode': 'en', 'nameprefix': 'Rome'}": {
    "error": "",
    "response": {
      "data": [
        {
          "id": 3586783,
          "wikiDataId": "Q18489490",
          "type": "CITY",
          "name": "Cascina Rometta",
          "region": "Lombardy",
          "regionCode": "25",
          "regionWdId": "Q1210",
          "latitude": 45.25074,
          "longitude": 9.60182,
          "population": 14
        }
      ],
      "metadata": {
        "currentOffset": 0,
        "totalCount": 18
      }
    }
  },
  "{'countryid': 'ES', 'limit': 1, 'languagecode': 'en', 'nameprefix': 'Barcelona'}": {
    "error": "",
    "response": {
      "data": [
        {
          "id": 3435617,
          "wikiDataId": "Q1492",
          "type": "CITY",
          "name": "Barcelona",
          "region": "Catalonia",
          "regionCode": "CT",
          "regionWdId": "Q5705",
          "latitude": 41.3825,
          "longitude": 2.176944444,
          "population": 1636193
        }
      ],
      "metadata": {
        "currentOffset": 0,
        "totalCount": 6
      }
    }
  },
  "{'countryid': 'IT', 'languagecode': 'en', 'limit': 1}": {
    "error": "",
    "response": {
      "data": [
        {
          "id": 3292475,
          "wikiDataId": "Q18488374",
          "type": "CITY",
          "name": "A Bertolacci",
          "region": "Tuscany",
          "regionCode": "52",
          "regionWdId": "Q1273",
          "latitude": 43.92125,
          "longitude": 10.48318,
          "population": 32
        }
      ],
      "metadata": {
        "currentOffset": 0,
        "totalCount": 59960
      }
    }
  },
  "{'countryid': 'GB', 'limit': 1}": {
    "error": "",
    "response": {
      "data": [
        {
          "id": 3487728,
          "wikiDataId": "Q4646804",
          "type": "CITY",
          "name": "A' Chill",
          "region": "Scotland",
          "regionCode": "SCT",
          "regionWdId": "Q22",
          "latitude": 57.0564,
          "longitude": -6.50979,
          "population": 0
        }
      ],
      "metadata": {
        "currentOffset": 0,
        "totalCount": 24141
      }
    }
  },
  "{'countryid': 'GB', 'limit': 5}": {
    "error": "",
    "response": {
      "data": [
        {
          "id": 3487728,
          "wikiDataId": "Q4646804",
          "type": "CITY",
          "name": "A' Chill",
          "region": "Scotland",
          "regionCode": "SCT",
          "regionWdId": "Q22",
          "latitude": 57.0564,
          "longitude": -6.50979,
          "population": 0
        },
        {
          "id": 3589772,
          "wikiDataId": "Q24659066",
          "type": "ISLAND",
          "name": "A' Chleit",
          "region": "Scotland",
          "regionCode": "SCT",
          "regionWdId": "Q22",
          "latitude": 58.133333333,
          "longitude": -5.35,
          "population": 0
        },
        {
          "id": 3637384,
          "wikiDataId": "Q2818847",
          "type": "ISLAND",
          "name": "A' Ch\u00f9li",
          "region": "Scotland",
          "regionCode": "SCT",
          "regionWdId": "Q22",
          "latitude": 56.23548,
          "longitude": -5.785933,
          "population": 0
        },
        {
          "id": 3280531,
          "wikiDataId": "Q3490381",
          "type": "CITY",
          "name": "Ab Kettleby",
          "region": "England",
          "regionCode": "ENG",
          "regionWdId": "Q21",
          "latitude": 52.80043,
          "longitude": -0.92608,
          "population": 0
        },
        {
          "id": 3395586,
          "wikiDataId": "Q4663033",
          "type": "CITY",
          "name": "Ab Lench",
          "region": "Worcestershire",
          "regionCode": "WOR",
          "regionWdId": "Q23135",
          "latitude": 52.16447,
          "longitude": -1.983,
          "population": 0
        }
      ],
      "metadata": {
        "currentOffset": 0,
        "totalCount": 24141
      }
    }
  },
  "{'countryid': 'GB', 'limit': 10, 'nameprefix': 'London'}": {
    "error": "",
    "response": {
      "data": [
        {
          "id": 45418,
          "wikiDataId": "Q23311",
          "type": "CITY",
          "name": "City of London",
          "region": "England",
          "regionCode": "ENG",
          "regionWdId": "Q21",
          "latitude": 51.515555555,
          "longitude": -0.093055555,
          "population": 8706
        },
        {
          "id": 3448199,
          "wikiDataId": "Q739700",
          "type": "CITY",
          "name": "East End of London",
          "region": "England",
          "regionCode": "ENG",
          "regionWdId": "Q21",
          "latitude": 51.514166666,
          "longitude": -0.055,
          "population": 0
        },
        {
          "id": 3602356,
          "wikiDataId": "Q23306",
          "type": "ADM2",
          "name": "Greater London",
          "region": "England",
          "regionCode": "ENG",
          "regionWdId": "Q21",
          "latitude": 51.5,
          "longitude": -0.083333333,
          "population": 8899375
        },
        {
          "id": 3490194,
          "wikiDataId": "Q6650730",
          "type": "CITY",
          "name": "Little London",
          "region": "Hampshire",
          "regionCode": "HAM",
          "regionWdId": "Q23204",
          "latitude": 51.3301,
          "longitude": -1.1084,
          "population": 0
        },
        {
          "id": 3481761,
          "wikiDataId": "Q11761978",
          "type": "CITY",
          "name": "Little London",
          "region": "Hampshire",
          "regionCode": "HAM",
          "regionWdId": "Q23204",
          "latitude": 51.2467,
          "longitude": -1.45658,
          "population": 0
        },
        {
          "id": 45633,
          "wikiDataId": "Q84",
          "type": "CITY",
          "name": "London",
          "region": "England",
          "regionCode": "ENG",
          "regionWdId": "Q21",
          "latitude": 51.507222222,
          "longitude": -0.1275,
          "population": 8908081
        },
        {
          "id": 3495090,
          "wikiDataId": "Q11762493",
          "type": "CITY",
          "name": "London Apprentice",
          "region": "Cornwall",
          "regionCode": "CON",
          "regionWdId": "Q22338583",
          "latitude": 50.3178,
          "longitude": -4.8001,
          "population": 0
        },
        {
          "id": 3539454,
          "wikiDataId": "Q205358",
          "type": "CITY",
          "name": "London Borough of Barking and Dagenham",
          "region": "England",
          "regionCode": "ENG",
          "regionWdId": "Q21",
          "latitude": 51.55,
          "longitude": 0.11667,
          "population": 211998
        },
        {
          "id": 3530564,
          "wikiDataId": "Q151048",
          "type": "CITY",
          "name": "London Borough of Barnet",
          "region": "England",
          "regionCode": "ENG",
          "regionWdId": "Q21",
          "latitude": 51.65736,
          "longitude": -0.21423,
          "population": 392140
        },
        {
          "id": 3583691,
          "wikiDataId": "Q207208",
          "type": "CITY",
          "name": "London Borough of Bexley",
          "region": "England",
          "regionCode": "ENG",
          "regionWdId": "Q21",
          "latitude": 51.41667,
          "longitude": 0.13333,
          "population": 247258
        }
      ],
      "metadata": {
        "currentOffset": 0,
        "totalCount": 40
      }
    }
  },
  "{'countryid': 'DE', 'limit': 5}": {
    "error": "",
    "response": {
      "data": [
        {
          "id": 3526448,
          "wikiDataId": "Q63806446",
          "type": "CITY",
          "name": "Aabauerschaft",
          "region": "North Rhine-Westphalia",
          "regionCode": "NW",
          "regionWdId": "Q1198",
          "latitude": 52.066666666,
          "longitude": 7.384722222,
          "population": 0
        },
        {
          "id": 3189887,
          "wikiDataId": "Q300691",
          "type": "CITY",
          "name": "Aach",
          "region": "Rhineland-Palatinate",
          "regionCode": "RP",
          "regionWdId": "Q1200",
          "latitude": 49.791111111,
          "longitude": 6.59,
          "population": 1142
        },
        {
          "id": 3661434,
          "wikiDataId": "Q31868004",
          "type": "CITY",
          "name": "Aach",
          "region": "Baden-W\u00fcrttemberg",
          "regionCode": "BW",
          "regionWdId": "Q985",
          "latitude": 47.8425,
          "longitude": 8.853888888,
          "population": 2248
        },
        {
          "id": 3643015,
          "wikiDataId": "Q31867994",
          "type": "CITY",
          "name": "Aach",
          "region": "Rhineland-Palatinate",
          "regionCode": "RP",
          "regionWdId": "Q1200",
          "latitude": 49.78333,
          "longitude": 6.6,
          "population": 1151
        },
        {
          "id": 3453293,
          "wikiDataId": "Q1017",
          "type": "CITY",
          "name": "Aachen",
          "region": "North Rhine-Westphalia",
          "regionCode": "NW",
          "regionWdId": "Q1198",
          "latitude": 50.77603,
          "longitude": 6.08723,
          "population": 249070
        }
      ],
      "metadata": {
        "currentOffset": 0,
        "totalCount": 26443
      }
    }
  },
  "{'countryid': 'US', 'limit': 3}": {
    "error": "",
    "response": {
      "data": [
        {
          "id": 3474305,
          "wikiDataId": "Q423532",
          "type": "CITY",
          "name": "'Amanave",
          "region": "American Samoa",
          "regionCode": "AS",
          "regionWdId": "Q16641",
          "latitude": -14.33,
          "longitude": -170.829444444,
          "population": 287
        },
        {
          "id": 3474538,
          "wikiDataId": "Q545773",
          "type": "CITY",
          "name": "'Aoa",
          "region": "American Samoa",
          "regionCode": "AS",
          "regionWdId": "Q16641",
          "latitude": -14.265555555,
          "longitude": -170.583888888,
          "population": 474
        },
        {
          "id": 3474327,
          "wikiDataId": "Q3596203",
          "type": "CITY",
          "name": "'Au'asi",
          "region": "American Samoa",
          "regionCode": "AS",
          "regionWdId": "Q16641",
          "latitude": -14.276666666,
          "longitude": -170.574444444,
          "population": 125
        }
      ],
      "metadata": {
        "currentOffset": 0,
        "totalCount": 80431
      }
    }
  },
  "{'countryid': 'US', 'limit': 3, 'languagecode': 'en', 'maxpopulation': 200000, 'types': 'CITY', 'sort': '-population'}": {
    "error": "",
    "response": {
      "data": [
        {
          "id": 128364,
          "wikiDataId": "Q23337",
          "type": "CITY",
          "name": "Salt Lake City",
          "region": "Utah",
          "regionCode": "UT",
          "regionWdId": "Q829",
          "latitude": 40.75,
          "longitude": -111.883333333,
          "population": 199723
        },
        {
          "id": 121774,
          "wikiDataId": "Q184587",
          "type": "CITY",
          "name": "Grand Rapids",
          "region": "Michigan",
          "regionCode": "MI",
          "regionWdId": "Q1166",
          "latitude": 42.96336,
          "longitude": -85.66809,
          "population": 198917
        },
        {
          "id": 126445,
          "wikiDataId": "Q5917",
          "type": "CITY",
          "name": "Huntington Beach",
          "region": "California",
          "regionCode": "CA",
          "regionWdId": "Q99",
          "latitude": 33.692777777,
          "longitude": -117.999722222,
          "population": 198711
        }
      ],
      "metadata": {
        "currentOffset": 0,
        "totalCount": 62753
      }
    }
  },
  "{'countryid': 'US', 'limit': 5, 'sort': 'population'}": {
    "error": "",
    "response": {
      "data": [
        {
          "id": 3651878,
          "wikiDataId": "Q49639918",
          "type": "ISLAND",
          "name": "Gull Island",
          "region": "Alaska",
          "regionCode": "AK",
          "regionWdId": "Q797",
          "latitude": 59.954166666,
          "longitude": -141.358333333,
          "population": 0
        },
        {
          "id": 3638672,
          "wikiDataId": "Q7458167",
          "type": "CITY",
          "name": "Seward",
          "region": "Illinois",
          "regionCode": "IL",
          "regionWdId": "Q1204",
          "latitude": 42.2358,
          "longitude": -89.3578,
          "population": 0
        },
        {
          "id": 3623461,
          "wikiDataId": "Q9041911",
          "type": "CITY",
          "name": "Madison Township",
          "region": "North Carolina",
          "regionCode": "NC",
          "regionWdId": "Q1454",
          "latitude": 36.4068,
          "longitude": -79.9831,
          "population": 0
        },
        {
          "id": 3541915,
          "wikiDataId": "Q15273739",
          "type": "ISLAND",
          "name": "Ruffle Bar",
          "region": "New York",
          "regionCode": "NY",
          "regionWdId": "Q1384",
          "latitude": 40.599444444,
          "longitude": -73.857222222,
          "population": 0
        },
        {
          "id": 3446913,
          "wikiDataId": "Q636358",
          "type": "CITY",
          "name": "Kensington",
          "region": "Pennsylvania",
          "regionCode": "PA",
          "regionWdId": "Q1400",
          "latitude": 39.9815,
          "longitude": -75.1224,
          "population": 0
        }
      ],
      "metadata": {
        "currentOffset": 0,
        "totalCount": 80431
      }
    }
  },
  "{'countryid': 'US', 'limit': 5, 'minpopulation': 1000000}": {
    "error": "",
    "response": {
      "data": [
        {
          "id": 172121,
          "wikiDataId": "Q107146",
          "type": "ADM2",
          "name": "Alameda County",
          "region": "California",
          "regionCode": "CA",
          "regionWdId": "Q99",
          "latitude": 37.65,
          "longitude": -121.91,
          "population": 1682353
        },
        {
          "id": 171902,
          "wikiDataId": "Q156291",
          "type": "ADM2",
          "name": "Allegheny County",
          "region": "Pennsylvania",
          "regionCode": "PA",
          "regionWdId": "Q1400",
          "latitude": 40.46883,
          "longitude": -79.98119,
          "population": 1250578
        },
        {
          "id": 170910,
          "wikiDataId": "Q16861",
          "type": "ADM2",
          "name": "Bexar County",
          "region": "Texas",
          "regionCode": "TX",
          "regionWdId": "Q1439",
          "latitude": 29.45,
          "longitude": -98.52,
          "population": 2009324
        },
        {
          "id": 3101690,
          "wikiDataId": "Q855974",
          "type": "ADM2",
          "name": "Bronx County",
          "region": "New York",
          "regionCode": "NY",
          "regionWdId": "Q1384",
          "latitude": 40.704167,
          "longitude": -73.918056,
          "population": 1385108
        },
        {
          "id": 122111,
          "wikiDataId": "Q18419",
          "type": "CITY",
          "name": "Brooklyn",
          "region": "New York",
          "regionCode": "NY",
          "regionWdId": "Q1384",
          "latitude": 40.692777777,
          "longitude": -73.990277777,
          "population": 2641052
        }
      ],
      "metadata": {
        "currentOffset": 0,
        "totalCount": 65
      }
    }
  },
  "{'countryid': 'US'}": {
    "error": "",
    "response": {
      "data": [
        {
          "id": 3474305,
          "wikiDataId": "Q423532",
          "type": "CITY",
          "name": "'Amanave",
          "region": "American Samoa",
          "regionCode": "AS",
          "regionWdId": "Q16641",
          "latitude": -14.33,
          "longitude": -170.829444444,
          "population": 287
        },
        {
          "id": 3474538,
          "wikiDataId": "Q545773",
          "type": "CITY",
          "name": "'Aoa",
          "region": "American Samoa",
          "regionCode": "AS",
          "regionWdId": "Q16641",
          "latitude": -14.265555555,
          "longitude": -170.583888888,
          "population": 474
        },
        {
          "id": 3474327,
          "wikiDataId": "Q3596203",
          "type": "CITY",
          "name": "'Au'asi",
          "region": "American Samoa",
          "regionCode": "AS",
          "regionWdId": "Q16641",
          "latitude": -14.276666666,
          "longitude": -170.574444444,
          "population": 125
        },
        {
          "id": 3269322,
          "wikiDataId": "Q22058543",
          "type": "CITY",
          "name": "A and F Trailer Park",
          "region": "Arizona",
          "regionCode": "AZ",
          "regionWdId": "Q816",
          "latitude": 33.295833333,
          "longitude": -111.841944444,
          "population": 0
        },
        {
          "id": 3474236,
          "wikiDataId": "Q3600284",
          "type": "CITY",
          "name": "A'oloau",
          "region": "American Samoa",
          "regionCode": "AS",
          "regionWdId": "Q16641",
          "latitude": -14.3128,
          "longitude": -170.774,
          "population": 790
        }
      ],
      "metadata": {
        "currentOffset": 0,
        "totalCount": 80431
      }
    }
  },
  "{'countryid': 'ES', 'limit': 5}": {
    "error": "",
    "response": {
      "data": [
        {
          "id": 3501262,
          "wikiDataId": "Q8183929",
          "type": "CITY",
          "name": "A Abeleda",
          "region": "Galicia",
          "regionCode": "GA",
          "regionWdId": "Q3908",
          "latitude": 42.17629,
          "longitude": -7.71043,
          "population": 325
        },
        {
          "id": 3464711,
          "wikiDataId": "Q1631832",
          "type": "CITY",
          "name": "A Arnoia",
          "region": "Galicia",
          "regionCode": "GA",
          "regionWdId": "Q3908",
          "latitude": 42.250277777,
          "longitude": -8.133055555,
          "population": 1015
        },
        {
          "id": 3519175,
          "wikiDataId": "Q1183411",
          "type": "CITY",
          "name": "A Ba\u00f1a",
          "region": "Galicia",
          "regionCode": "GA",
          "regionWdId": "Q3908",
          "latitude": 42.966666666,
          "longitude": -8.766666666,
          "population": 3333
        },