{
  "{'statecode': 'KU', 'countrycode': 'AL'}": {
    "error": "",
    "response": [
      {
        "id": "151",
        "name": "Bajram Curri",
        "state_code": "KU",
        "country_code": "AL",
        "latitude": "42.35734000",
        "longitude": "20.07679000"
      },
      {
        "id": "215",
        "name": "Krum\u00eb",
        "state_code": "KU",
        "country_code": "AL",
        "latitude": "42.19694000",
        "longitude": "20.41333000"
      },
      {
        "id": "217",
        "name": "Kuk\u00ebs",
        "state_code": "KU",
        "country_code": "AL",
        "latitude": "42.07694000",
        "longitude": "20.42194000"
      },
      {
        "id": "247",
        "name": "Rrethi i Hasit",
        "state_code": "KU",
        "country_code": "AL",
        "latitude": "42.16667000",
        "longitude": "20.33333000"
      },
      {
        "id": "251",
        "name": "Rrethi i Kuk\u00ebsit",
        "state_code": "KU",
        "country_code": "AL",
        "latitude": "42.00000000",
        "longitude": "20.33333000"
      }
    ]
  },
  "{'statecode': 'US', 'countrycode': 'US'}": {
    "error": "",
    "response": []
  },
  "{'statecode': 'AK', 'countrycode': 'US'}": {
    "error": "",
    "response": "[{'id': '111081', 'name': 'Akutan', 'state_code': 'AK', 'country_code': 'US', 'latitude': '54.13350000', 'longitude': '-165.77686000'}, {'id': '111143', 'name': 'Aleutians East Borough', 'state_code': 'AK', 'country_code': 'US', 'latitude': '54.85000000', 'longitude': '-163.41667000'}, {'id': '111144', 'name': 'Aleutians West Census Area', 'state_code': 'AK', 'country_code': 'US', 'latitude': '52.16298000', 'longitude': '-174.28505000'}, {'id': '111303', 'name': 'Anchor Point', 'state_code': 'AK', 'country_code': 'US', 'latitude': '59.77667000', 'longitude': '-151.83139000'}, {'id': '111305', 'name': 'Anchorage', 'state_code': 'AK', 'country_code': 'US', 'latitude': '61.21806000', 'longitude': '-149.90028000'}, {'id': '111306', 'name': 'Anchorage Municipality', 'state_code': 'AK', 'country_code': 'US', 'latitude': '61.16667000', 'longitude': '-149.25056000'}, {'id': '111724', 'name': 'Badger', 'state_code': 'AK', 'country_code': 'US', 'latitude': '64.80000000', 'longitude': '-147.53333000'}, {'id': '111852', 'name': 'Barrow', 'state_code': 'AK', 'country_code': 'US', 'latitude': '71.29058000', 'longitude': '-156.78872000'}, {'id': '111976', 'name': 'Bear Creek', 'state_code': 'AK', 'country_code': 'US', 'latitude': '60.16417000', 'longitude': '-149.39500000'}, {'id': '112281', 'name': 'Bethel', 'state_code': 'AK', 'country_code': 'US', 'latitude': '60.79222000', 'longitude': '-161.75583000'}, {'id': '112284', 'name': 'Bethel Census Area', 'state_code': 'AK', 'country_code': 'US', 'latitude': '60.75056000', 'longitude': '-160.50056000'}, {'id': '112325', 'name': 'Big Lake', 'state_code': 'AK', 'country_code': 'US', 'latitude': '61.52139000', 'longitude': '-149.95444000'}, {'id': '112813', 'name': 'Bristol Bay Borough', 'state_code': 'AK', 'country_code': 'US', 'latitude': '58.75056000', 'longitude': '-156.83333000'}, {'id': '113124', 'name': 'Butte', 'state_code': 'AK', 'country_code': 'US', 'latitude': '61.54222000', 'longitude': '-149.03333000'}, {'id': '113917', 'name': 'Chevak', 'state_code': 'AK', 'country_co"
  }
}