{
    "{'area': 'West Sussex', 'property_type': 'flat'}": {
        "error": "",
        "response": {
            "country": "England",
            "result_count": 0,
            "longitude": -0.199575,
            "area_name": "Greenwich Close, Crawley RH11",
            "street": "Greenwich Close",
            "town": "Crawley",
            "latitude": 51.099318,
            "county": "West Sussex",
            "bounding_box": {
                "longitude_min": "-0.199575",
                "latitude_min": "51.099318",
                "longitude_max": "-0.199575",
                "latitude_max": "51.099318"
            },
            "postcode": "RH11",
            "property": []
        }
    },
    "{'area': 'West Sussex', 'property_type': 'detached'}": {
        "error": "",
        "response": {
            "country": "England",
            "result_count": 0,
            "longitude": -0.199575,
            "area_name": "Greenwich Close, Crawley RH11",
            "street": "Greenwich Close",
            "town": "Crawley",
            "latitude": 51.099318,
            "county": "West Sussex",
            "bounding_box": {
                "longitude_min": "-0.199575",
                "latitude_min": "51.099318",
                "longitude_max": "-0.199575",
                "latitude_max": "51.099318"
            },
            "postcode": "RH11",
            "property": []
        }
    },
    "{'area': 'Greenwich Close, Crawley RH11', 'property_type': 'detached'}": {
        "error": "",
        "response": {
            "country": "England",
            "result_count": 0,
            "longitude": -0.199575,
            "area_name": "Greenwich Close, Crawley RH11",
            "street": "Greenwich Close",
            "town": "Crawley",
            "latitude": 51.099318,
            "county": "West Sussex",
            "bounding_box": {
                "longitude_min": "-0.199575",
                "latitude_min": "51.099318",
                "longitude_max": "-0.199575",
                "latitude_max": "51.099318"
            },
            "postcode": "RH11",
            "property": []
        }
    },
    "{'area': 'Greenwich Close, Crawley RH11', 'property_type': 'flat'}": {
        "error": "",
        "response": {
            "country": "England",
            "result_count": 0,
            "longitude": -0.199575,
            "area_name": "Greenwich Close, Crawley RH11",
            "street": "Greenwich Close",
            "town": "Crawley",
            "latitude": 51.099318,
            "county": "West Sussex",
            "bounding_box": {
                "longitude_min": "-0.199575",
                "latitude_min": "51.099318",
                "longitude_max": "-0.199575",
                "latitude_max": "51.099318"
            },
            "postcode": "RH11",
            "property": []
        }
    },
    "{'area': 'Crawley'}": {
        "error": "",
        "response": {
            "country": "England",
            "result_count": 3,
            "longitude": -0.188105,
            "area_name": "Crawley",
            "street": "",
            "town": "Crawley",
            "latitude": 51.10914,
            "county": "West Sussex",
            "bounding_box": {
                "longitude_min": "-0.215642",
                "latitude_min": "51.0839",
                "longitude_max": "-0.161417",
                "latitude_max": "51.1338"
            },
            "postcode": "",
            "property": [
                {
                    "address": "10 Downing Street, Crawley RH10 9AA",
                    "type": "detached",
                    "bedrooms": 3,
                    "bathrooms": 2,
                    "price": "\u00a3475,000",
                    "date": "2023-03-15",
                    "status": "for_sale"
                },
                {
                    "address": "42 High Street, Crawley RH10 1BW",
                    "type": "semi-detached",
                    "bedrooms": 2,
                    "bathrooms": 1,
                    "price": "\u00a3295,000",
                    "date": "2023-03-01",
                    "status": "sold_stc"
                },
                {
                    "address": "88 Park Lane, Crawley RH10 3DF",
                    "type": "flat",
                    "bedrooms": 1,
                    "bathrooms": 1,
                    "price": "\u00a3220,000",
                    "date": "2023-02-20",
                    "status": "for_rent",
                    "rental_price": "\u00a3850 pcm"
                }
            ]
        }
    },
    "{'area': 'Crawley', 'order_by': 'estimated_value', 'page_size': 5, 'ordering': 'descending'}": {
        "error": "",
        "response": {
            "country": "England",
            "result_count": 5,
            "properties": [
                {
                    "property_id": 53748,
                    "title": "Modern five-bedroom detached house",
                    "area_name": "Forestfield, Crawley RH10",
                    "street": "Forestfield",
                    "town": "Crawley",
                    "county": "West Sussex",
                    "estimated_value": 750000,
                    "postcode": "RH10",
                    "type": "detached",
                    "bedrooms": 5,
                    "bathrooms": 3,
                    "longitude": -0.188104,
                    "latitude": 51.10914
                },
                {
                    "property_id": 47492,
                    "title": "Elegant four-bedroom townhouse",
                    "area_name": "Highwood, Crawley RH10",
                    "street": "Highwood",
                    "town": "Crawley",
                    "county": "West Sussex",
                    "estimated_value": 625000,
                    "postcode": "RH10",
                    "type": "townhouse",
                    "bedrooms": 4,
                    "bathrooms": 2,
                    "longitude": -0.193821,
                    "latitude": 51.113773
                },
                {
                    "property_id": 54229,
                    "title": "Contemporary three-bedroom semi-detached home",
                    "area_name": "Woodfield Close, Crawley RH10",
                    "street": "Woodfield Close",
                    "town": "Crawley",
                    "county": "West Sussex",
                    "estimated_value": 500000,
                    "postcode": "RH10",
                    "type": "semi-detached",
                    "bedrooms": 3,
                    "bathrooms": 2,
                    "longitude": -0.194058,
                    "latitude": 51.122651
                },
                {
                    "property_id": 52516,
                    "title": "Spacious two-bedroom terraced house",
                    "area_name": "Millbank, Crawley RH10",
                    "street": "Millbank",
                    "town": "Crawley",
                    "county": "West Sussex",
                    "estimated_value": 350000,
                    "postcode": "RH10",
                    "type": "terraced",
                    "bedrooms": 2,
                    "bathrooms": 1,
                    "longitude": -0.184729,
                    "latitude": 51.128239
                },
                {
                    "property_id": 54487,
                    "title": "Charming one-bedroom flat",
                    "area_name": "Beckett Lane, Crawley RH10",
                    "street": "Beckett Lane",
                    "town": "Crawley",
                    "county": "West Sussex",
                    "estimated_value": 275000,
                    "postcode": "RH10",
                    "type": "flat",
                    "bedrooms": 1,
                    "bathrooms": 1,
                    "longitude": -0.160826,
                    "latitude": 51.115784
                }
            ]
        }
    },
    "{'area': 'Crawley', 'page_size': 5}": {
        "error": "",
        "response": {
            "country": "England",
            "result_count": 5,
            "area_name": "Crawley",
            "properties": [
                {
                    "property_type": "flat",
                    "address": "123 Stellar Road, Crawley RH10",
                    "price_estimate": 210000,
                    "number_of_bedrooms": 2,
                    "longitude": -0.188104,
                    "latitude": 51.115613,
                    "postcode": "RH10"
                },
                {
                    "property_type": "detached",
                    "address": "45 Riverside Drive, Crawley RH10",
                    "price_estimate": 480000,
                    "number_of_bedrooms": 4,
                    "longitude": -0.190956,
                    "latitude": 51.122307,
                    "postcode": "RH10"
                },
                {
                    "property_type": "semi-detached",
                    "address": "11 Oak Avenue, Crawley RH11",
                    "price_estimate": 320000,
                    "number_of_bedrooms": 3,
                    "longitude": -0.194826,
                    "latitude": 51.106003,
                    "postcode": "RH11"
                },
                {
                    "property_type": "terraced",
                    "address": "98 High Street, Crawley RH10",
                    "price_estimate": 275000,
                    "number_of_bedrooms": 3,
                    "longitude": -0.187224,
                    "latitude": 51.117529,
                    "postcode": "RH10"
                },
                {
                    "property_type": "bungalow",
                    "address": "22 Park Lane, Crawley RH11",
                    "price_estimate": 390000,
                    "number_of_bedrooms": 2,
                    "longitude": -0.18573,
                    "latitude": 51.109231,
                    "postcode": "RH11"
                }
            ],
            "bounding_box": {
                "longitude_min": "-0.194826",
                "latitude_min": "51.106003",
                "longitude_max": "-0.187224",
                "latitude_max": "51.122307"
            }
        }
    },
    "{'area': 'Crawley', 'page_number': 1, 'order_by': 'estimated_value', 'ordering': 'ascending', 'page_size': 40}": {
        "error": "",
        "response": {
            "country": "England",
            "result_count": 3,
            "area_name": "Crawley",
            "properties": [
                {
                    "address": "1 Example Street, Crawley RH10",
                    "property_type": "semi-detached",
                    "bedrooms": 3,
                    "bathrooms": 1,
                    "estimated_value": 330000,
                    "latitude": 51.10914,
                    "longitude": -0.187227
                },
                {
                    "address": "2 Example Lane, Crawley RH10",
                    "property_type": "terraced",
                    "bedrooms": 2,
                    "bathrooms": 1,
                    "estimated_value": 300000,
                    "latitude": 51.113256,
                    "longitude": -0.183414
                },
                {
                    "address": "3 Example Road, Crawley RH10",
                    "property_type": "flat",
                    "bedrooms": 1,
                    "bathrooms": 1,
                    "estimated_value": 250000,
                    "latitude": 51.106422,
                    "longitude": -0.190524
                }
            ],
            "pagination": {
                "current_page": 1,
                "page_size": 40,
                "total_pages": 1,
                "total_results": 3
            },
            "bounding_box": {
                "longitude_min": -0.199575,
                "latitude_min": 51.099318,
                "longitude_max": -0.183414,
                "latitude_max": 51.113256
            },
            "town": "Crawley",
            "county": "West Sussex",
            "postcode": "RH10"
        }
    }
}