{
    "tool_name":"Zipcodebase Zip Code Search",
    "tool_description":"Zip Code API - Free Access to Worldwide Postal Code Data",
    "title":"Zipcodebase Zip Code Search",
    "pricing":"FREE",
    "score":{
        "avgServiceLevel":100,
        "avgLatency":268,
        "avgSuccessRate":100,
        "popularityScore":9.7,
        "__typename":"Score"
    },
    "home_url":"https://rapidapi.com/saasindustries/api/zipcodebase-zip-code-search/",
    "host":"zipcodebase-zip-code-search.p.rapidapi.com",
    "api_list":[
        {
            "name":"Postalcode to location information (/search)",
            "url":"https://zipcodebase-zip-code-search.p.rapidapi.com/search",
            "description":"This endpoint allows you to receive information for one or multiple given postalcodes.",
            "method":"GET",
            "required_parameters":[
                {
                    "name":"codes",
                    "type":"STRING",
                    "description":"",
                    "default":"10005"
                }
            ],
            "optional_parameters":[
                {
                    "name":"country",
                    "type":"STRING",
                    "description":"",
                    "default":""
                }
            ],
            "code":"import requests\n\nurl = \"https://zipcodebase-zip-code-search.p.rapidapi.com/search\"\nquerystring = {\"codes\": codes}\n\nheaders = {\n    \"X-RapidAPI-Key\": \"SIGN-UP-FOR-KEY\",\n    \"X-RapidAPI-Host\": \"zipcodebase-zip-code-search.p.rapidapi.com\"\n}\n\nresponse = requests.get(url, headers=headers, params=querystring)\n\nprint(response.json())\n",
            "statuscode":200,
            "body":{
                "query":{
                    "codes":[
                        "10005"
                    ],
                    "country":null
                },
                "results":{
                    "10005":[
                        {
                            "city":"Ouled Zidane",
                            "country_code":"DZ",
                            "latitude":"36.26960000",
                            "longitude":"3.66360000",
                            "postal_code":"10005",
                            "province":null,
                            "province_code":null,
                            "state":"Bouira",
                            "state_code":"10"
                        },
                        {
                            "city":"Ain Bessem",
                            "country_code":"DZ",
                            "latitude":"36.29330000",
                            "longitude":"3.67320000",
                            "postal_code":"10005",
                            "province":null,
                            "province_code":null,
                            "state":"Bouira",
                            "state_code":"10"
                        },
                        {
                            "city":"Khebatna",
                            "country_code":"DZ",
                            "latitude":"36.28150000",
                            "longitude":"3.66840000",
                            "postal_code":"10005",
                            "province":null,
                            "province_code":null,
                            "state":"Bouira",
                            "state_code":"10"
                        },
                        {
                            "city":"Ain Chellala",
                            "country_code":"DZ",
                            "latitude":"36.28150000",
                            "longitude":"3.66840000",
                            "postal_code":"10005",
                            "province":null,
                            "province_code":null,
                            "state":"Bouira",
                            "state_code":"10"
                        },
                        {
                            "city":"Mtenane",
                            "country_code":"DZ",
                            "latitude":"36.28150000",
                            "longitude":"3.66840000",
                            "postal_code":"10005",
                            "province":null,
                            "province_code":null,
                            "state":"Bouira",
                            "state_code":"10"
                        },
                        {
                            "city":"Terrarfa",
                            "country_code":"DZ",
                            "latitude":"36.28150000",
                            "longitude":"3.66840000",
                            "postal_code":"10005",
                            "province":null,
                            "province_code":null,
                            "state":"Bouira",
                            "state_code":"10"
                        },
                        {
                            "city":"Souflate",
                            "country_code":"DZ",
                            "latitude":"36.28150000",
                            "longitude":"3.66840000",
                            "postal_code":"10005",
                            "province":null,
                            "province_code":null,
                            "state":"Bouira",
                            "state_code":"10"
                        },
                        {
                            "city":"Sahania",
                            "country_code":"DZ",
                            "latitude":"36.28150000",
                            "longitude":"3.66840000",
                            "postal_code":"10005",
                            "province":null,
                            "province_code":null,
                            "state":"Bouira",
                            "state_code":"10"
                        },
                        {
                            "city":"Bir Saradj",
                            "country_code":"DZ",
                            "latitude":"36.28150000",
                            "longitude":"3.66840000",
                            "postal_code":"10005",
                            "province":null,
                            "province_code":null,
                            "state":"Bouira",
                            "state_code":"10"
                        },
                        {
                            "city":"Houachria",
                            "country_code":"DZ",
                            "latitude":"36.28150000",
                            "longitude":"3.66840000",
                            "postal_code":"10005",
                            "province":null,
                            "province_code":null,
                            "state":"Bouira",
                            "state_code":"10"
                        },
                        {
                            "city":"Caceres",
                            "country_code":"ES",
                            "latitude":"39.47650000",
                            "longitude":"-6.37220000",
                            "postal_code":"10005",
                            "province":"Cáceres",
                            "province_code":"CC",
                            "state":"Extremadura",
                            "state_code":"EX"
                        },
                        {
                            "city":"SAN JOSE EL IDOLO",
                            "country_code":"GT",
                            "latitude":"14.45000000",
                            "longitude":"-91.41670000",
                            "postal_code":"10005",
                            "province":null,
                            "province_code":null,
                            "state":"DEPTO DE SUCHITEPEQUEZ",
                            "state_code":"20"
                        },
                        {
                            "city":"하성면",
                            "country_code":"KR",
                            "latitude":"37.74930000",
                            "longitude":"126.63100000",
                            "postal_code":"10005",
                            "province":"김포시",
                            "province_code":"31230",
                            "state":"경기도",
                            "state_code":"13"
                        },
                        {
                            "city":"Житомир",
                            "country_code":"UA",
                            "latitude":"50.26490000",
                            "longitude":"28.67670000",
                            "postal_code":"10005",
                            "province":"Zhytomyrska",
                            "province_code":null,
                            "state":"Zhytomyrska",
                            "state_code":"27"
                        },
                        {
                            "city":"New York",
                            "country_code":"US",
                            "latitude":"40.70560000",
                            "longitude":"-74.00830000",
                            "postal_code":"10005",
                            "province":"New York",
                            "province_code":"061",
                            "state":"New York",
                            "state_code":"NY"
                        }
                    ]
                }
            },
            "headers":{
                "access-control-allow-headers":"DNT,User-Agent,X-Requested-With,If-Modified-Since,Cache-Control,Content-Type,Range",
                "access-control-allow-methods":"GET, POST, OPTIONS",
                "access-control-allow-origin":"*",
                "access-control-expose-headers":"Content-Length,Content-Range",
                "cache-control":"no-cache, private",
                "cf-cache-status":"DYNAMIC",
                "cf-ray":"5b64145a9b0c0857-CDG",
                "cf-request-id":"04126b0c9c0000085737921200000001",
                "charset":"utf-8",
                "content-type":"application/json; charset=UTF-8",
                "date":"Tue, 21 Jul 2020 10:01:14 GMT",
                "expect-ct":"max-age=604800, report-uri=\"https://report-uri.cloudflare.com/cdn-cgi/beacon/expect-ct\"",
                "server":"RapidAPI-1.1.24",
                "set-cookie":[
                    "__cfduid=d6c662f059d190f57a3dfbaec13d880ae1595325674; expires=Thu, 20-Aug-20 10:01:14 GMT; path=/; domain=.zipcodebase.com; HttpOnly; SameSite=Lax; Secure"
                ],
                "x-rapidapi-region":"AWS - eu-central-1",
                "x-rapidapi-version":"1.1.24",
                "x-ratelimit-requests-limit":"10000",
                "x-ratelimit-requests-remaining":"9997",
                "content-length":"2923",
                "connection":"Close"
            },
            "schema":{}
        }
    ]
}