{
  "{'lat': 33.91731701042379, 'lng': -118.41617798358956}": {
    "error": "",
    "response": {
      "Results": [
        {
          "Distance": 1.787939367796557,
          "address": "Tavern On Main, 123 Main St, El Segundo, CA, 90245, United States of America",
          "addressnumber": "123",
          "city": "El Segundo",
          "region": "California",
          "subregion": "Los Angeles County",
          "country": "United States of America",
          "postalcode": "90245",
          "longitude": -118.41619699999995,
          "latitude": 33.917320000000075
        }
      ]
    }
  },
  "{'lat': 48.858344, 'lng': 2.294475}": {
    "error": "",
    "response": {
      "Results": [
        {
          "Distance": 4.242641476823779,
          "address": "Tour Eiffel, Paris, \u00cele-de-France, France",
          "city": "Paris",
          "neighborhood": "Paris 07",
          "region": "\u00cele-de-France",
          "subregion": "Paris",
          "country": "France",
          "longitude": 2.294520000000034,
          "latitude": 48.85832000000005
        }
      ]
    }
  },
  "{'lat': 40.629885, 'lng': -73.96089799999999}": {
    "error": "",
    "response": {
      "Results": [
        {
          "Distance": 6.327780442533911e-09,
          "address": "Business, 1612 Avenue H, Brooklyn, NY, 11230, United States of America",
          "addressnumber": "1612",
          "city": "Brooklyn",
          "region": "New York",
          "subregion": "Kings County",
          "country": "United States of America",
          "postalcode": "11230",
          "longitude": -73.96089799999999,
          "latitude": 40.62988500000006
        }
      ]
    }
  },
  "{'lat': 48.85824, 'lng': 2.2945}": {
    "error": "",
    "response": {
      "Results": [
        {
          "Distance": 8.93132815190643e-09,
          "address": "Tour Eiffel, 5 Avenue Anatole France, 75007, 7e Arrondissement, Paris, \u00cele-de-France, France",
          "addressnumber": "5",
          "city": "Paris",
          "neighborhood": "Gros Caillou",
          "region": "\u00cele-de-France",
          "subregion": "Paris",
          "country": "France",
          "postalcode": "75007",
          "longitude": 2.2945000000000277,
          "latitude": 48.85824000000008
        }
      ]
    }
  },
  "{'lat': 37.7749, 'lng': -122.4194}": {
    "error": "",
    "response": {
      "Results": [
        {
          "Distance": 2.202927181990908,
          "address": "Davinci Meeting Rooms San Francisco, 28 2nd St, San Francisco, CA, 94103, United States of America",
          "addressnumber": "28",
          "city": "San Francisco",
          "region": "California",
          "subregion": "San Francisco County",
          "country": "United States of America",
          "postalcode": "94103",
          "longitude": -122.41939299999996,
          "latitude": 37.77491900000007
        }
      ]
    }
  }
}