{
  "{'name': 'major European cities'}": {
    "error": "",
    "response": [
      {
        "itemName": "Major, SK",
        "type": "POI",
        "cityName": "Major",
        "stateCode": "SK",
        "address": "Major, SK, CA",
        "countryName": "Canada",
        "lat": 51.87136078,
        "lon": -109.61303711,
        "poiCategoryTypeId": 0,
        "entered": "major european cities",
        "displayName": "Major, SK, CA",
        "highlightedName": "Major, SK",
        "rentalLocationsCount": 0
      },
      {
        "itemName": "Major, KY",
        "type": "POI",
        "cityName": "Major",
        "stateCode": "KY",
        "address": "Major, KY, US",
        "countryName": "United States",
        "lat": 37.41399765,
        "lon": -83.69844818,
        "poiCategoryTypeId": 0,
        "entered": "major european cities",
        "displayName": "Major, KY, US",
        "highlightedName": "Major, KY",
        "rentalLocationsCount": 0
      },
      {
        "itemName": "Major, GA",
        "type": "POI",
        "cityName": "Major",
        "stateCode": "GA",
        "address": "Major, GA, US",
        "countryName": "United States",
        "lat": 33.45181656,
        "lon": -84.65686035,
        "poiCategoryTypeId": 0,
        "entered": "major european cities",
        "displayName": "Major, GA, US",
        "highlightedName": "Major, GA",
        "rentalLocationsCount": 0
      },
      {
        "itemName": "Major, UT",
        "type": "POI",
        "cityName": "Major",
        "stateCode": "UT",
        "address": "Major, UT, US",
        "countryName": "United States",
        "lat": 40.91383362,
        "lon": -111.86882782,
        "poiCategoryTypeId": 0,
        "entered": "major european cities",
        "displayName": "Major, UT, US",
        "highlightedName": "Major, UT",
        "rentalLocationsCount": 0
      },
      {
        "itemName": "Major, VA",
        "type": "POI",
        "cityName": "Major",
        "stateCode": "VA",
        "address": "Major, VA, US",
        "countryName": "United States",
        "lat": 37.55088043,
        "lon": -79.36856842,
        "poiCategoryTypeId": 0,
        "entered": "major european cities",
        "displayName": "Major, VA, US",
        "highlightedName": "Major, VA",
        "rentalLocationsCount": 0
      }
    ]
  },
  "{'name': 'major cities in Europe'}": {
    "error": "",
    "response": [
      {
        "itemName": "Europe",
        "type": "POI",
        "cityName": "Europe",
        "address": "Europe, null",
        "lat": 54.26122284,
        "lon": 17.66984558,
        "poiCategoryTypeId": 0,
        "entered": "major cities in europe",
        "displayName": "Europe, null",
        "highlightedName": "Europe",
        "rentalLocationsCount": 0
      },
      {
        "itemName": "Inn",
        "type": "POI",
        "cityName": "Inn",
        "address": "Inn, null",
        "lat": 48.28354645,
        "lon": 13.13555527,
        "poiCategoryTypeId": 0,
        "entered": "major cities in europe",
        "displayName": "Inn, null",
        "highlightedName": "Inn",
        "rentalLocationsCount": 0
      },
      {
        "itemName": "Major, SK",
        "type": "POI",
        "cityName": "Major",
        "stateCode": "SK",
        "address": "Major, SK, CA",
        "countryName": "Canada",
        "lat": 51.87136078,
        "lon": -109.61303711,
        "poiCategoryTypeId": 0,
        "entered": "major cities in europe",
        "displayName": "Major, SK, CA",
        "highlightedName": "Major, SK",
        "rentalLocationsCount": 0
      },
      {
        "itemName": "Major, Galicia, Spain",
        "type": "POI",
        "cityName": "Major",
        "stateCode": "Galicia",
        "address": "Major, Galicia, Spain, ES",
        "countryName": "Spain",
        "lat": 42.81003571,
        "lon": -8.95970535,
        "poiCategoryTypeId": 0,
        "entered": "major cities in europe",
        "displayName": "Major, Galicia, Spain, ES",
        "highlightedName": "Major, Galicia, Spain",
        "rentalLocationsCount": 0
      },
      {
        "itemName": "Major, GA",
        "type": "POI",
        "cityName": "Major",
        "stateCode": "GA",
        "address": "Major, GA, US",
        "countryName": "United States",
        "lat": 33.45181656,
        "lon": -84.65686035,
        "poiCategoryTypeId": 0,
        "entered": "major cities in europe",
        "displayName": "Major, GA, US",
        "highlightedName": "Major, GA",
        "rentalLocationsCount": 0
      }
    ]
  }
}