{
  "{'state_code': 'NY'}": {
    "error": "",
    "response": {
      "data": {
        "schools": {
          "__typename": "SchoolList",
          "total": null,
          "schools": []
        },
        "districts": {
          "__typename": "SchoolDistrictList",
          "total": 1027,
          "districts": [
            {
              "__typename": "SchoolDistrictComplete",
              "rating": null,
              "name": "Solvay Union Free School District",
              "nces_code": "3627150",
              "greatschools_id": "13600590",
              "school_count": 3,
              "student_count": 1482,
              "id": "06194294131",
              "coordinate": {
                "__typename": "Coordinate",
                "lat": 43.092754,
                "lon": -76.249992
              },
              "location": {
                "__typename": "SchoolLocation",
                "postal_code": "13209",
                "state": "NY",
                "county": "Onondaga County",
                "city": "SOLVAY",
                "street": "299 BURY DR"
              }
            },
            {
              "__typename": "SchoolDistrictComplete",
              "rating": null,
              "name": "St Regis Falls Central School District",
              "nces_code": "3627990",
              "greatschools_id": "13600611",
              "school_count": 1,
              "student_count": 266,
              "id": "06194294431",
              "coordinate": {
                "__typename": "Coordinate",
                "lat": 44.679001,
                "lon": -74.542625
              },
              "location": {
                "__typename": "SchoolLocation",
                "postal_code": "12980",
                "state": "NY",
                "county": "Franklin County",
                "city": "Saint Regis Falls",
                "street": "92 North Main Street"
              }
            },
            {
              "__typename": "SchoolDistrictComplete",
              "rating": null,
              "name": "Brasher Falls Central School District",
              "nces_code": "3627960",
              "greatschools_id": "13600609",
              "school_count": 3,
              "student_count": 1036,
              "id": "06194294411",
              "coordinate": {
                "__typename": "Coordinate",
                "lat": 44.80592,
                "lon": -74.765228
              },
              "location": {
                "__typename": "SchoolLocation",
                "postal_code": "13613",
                "state": "NY",
                "county": "St. Lawrence County",
                "city": "BRASHER FALLS",
                "street": "1039 STATE HWY 11C"
              }
            },
            {
              "__typename": "SchoolDistrictComplete",
              "rating": null,
              "name": "Sodus Central School District",
              "nces_code": "3627120",
              "greatschools_id": "13600589",
              "school_count": 3,
              "student_count": 1082,
              "id": "06194294121",
              "coordinate": {
                "__typename": "Coordinate",
                "lat": 43.229362,
                "lon": -77.062218
              },
              "location": {
                "__typename": "SchoolLocation",
                "postal_code": "14551",
                "state": "NY",
                "county": "Wayne County",
                "city": "Sodus",
                "street": "6375 Robinson Road"
              }
            },
            {
              "__typename": "SchoolDistrictComplete",
              "rating": null,
              "name": "Springs Union Free School District",
              "nces_code": "3627900",
              "greatschools_id": "13600607",
              "school_count": 1,
              "student_count": 724,
              "id": "06194294361",
              "coordinate": {
                "__typename": "Coordinate",
                "lat": 41.017395,
                "lon": -72.154686
              },
              "location": {
                "__typename": "SchoolLocation",
                "postal_code": "11937",
                "state": "NY",
                "county": "Suffolk County",
                "city": "East Hampton",
                "street": "48 School Street"
              }
            },
            {
              "__typename": "SchoolDistrictComplete",
              "rating": null,
              "name": "Smithtown Central School District",
              "nces_code": "3627060",
              "greatschools_id": "13600588",
              "school_count": 12,
              "student_count": 8727,
              "id": "06194294111",
              "coordinate": {
                "__typename": "Coordinate",
                "lat": 40.854084,
                "lon": -73.199722
              },
              "location": {
                "__typename": "SchoolLocation",
                "postal_code": "11787",
                "state": "NY",
                "county": "Suffolk County",
                "city": "Smithtown",
                "street": "26 New York Avenue"
              }
            },
            {
              "__typename": "SchoolDistrictComplete",
              "rating": null,
              "name": "Cheektowaga-Sloan Union Free School District",
              "nces_code": "3627000",
              "greatschools_id": "13600587",
              "school_count": 4,
              "student_count": 1397,
              "id": "06194294101",
              "coordinate": {
                "__typename": "Coordinate",
                "lat": 42.894932,
                "lon": -78.794441
              },
              "location": {
                "__typename": "SchoolLocation",
                "postal_code": "14212",
                "state": "NY",
                "county": "Erie County",
                "city": "SLOAN",
                "street": "166 HALSTEAD AVE"
              }
            },
            {
              "__typename": "SchoolDistrictComplete",
              "rating": null,
              "name": "Sherburne-Earlville Central School District",
              "nces_code": "3626700",
              "greatschools_id": "13600580",
              "school_count": 3,
              "student_count": 1397,
              "id": "06194294001",
              "coordinate": {
                "__typename": "Coordinate",
                "lat": 42.689884,
                "lon": -75.494278
              },
              "location": {
                "__typename": "SchoolLocation",
                "postal_code": "13460",
                "state": "NY",
                "county": "Chenango County",
                "city": "Sherburne",
                "street": "15 School Street"
              }
            },
            {
              "__typename": "SchoolDistrictComplete",
              "rating": null,
              "name": "Shenendehowa Central School District",
              "nces_code": "3626670",
              "greatschools_id": "13600579",
              "school_count": 12,
              "student_count": 9761,
              "id": "06194293961",
              "coordinate": {
                "__typename": "Coordinate",
                "lat": 42.869202,
                "lon": -73.770798
              },
              "location": {
                "__typename": "SchoolLocation",
                "postal_code": "12065",
                "state": "NY",
                "county": "Saratoga County",
                "city": "CLIFTON PARK",
                "street": "5 CHELSEA PL"
              }
            },
            {
              "__typename": "SchoolDistrictComplete",
              "rating": null,
              "name": "East Ramapo Central School District (Spring Valley)",
              "nces_code": "3627810",
              "greatschools_id": "13600606",
              "school_count": 14,
              "student_count": 9092,
              "id": "06194294351",
              "coordinate": {
                "__typename": "Coordinate",
                "lat": 41.103546,
                "lon": -74.049248
              },
              "location": {
                "__typename": "SchoolLocation",
                "postal_code": "10977",
                "state": "NY",
                "county": "Rockland County",
                "city": "Spring Valley",
                "street": "105 South Madison Avenue"
              }
            }
          ]
        }
      }
    }
  },
  "{'state_code': 'CA', 'limit': 10}": {
    "error": "",
    "response": {
      "data": {
        "schools": {
          "__typename": "SchoolList",
          "total": null,
          "schools": []
        },
        "districts": {
          "__typename": "SchoolDistrictList",
          "total": 1683,
          "districts": [
            {
              "__typename": "SchoolDistrictComplete",
              "rating": null,
              "name": "Vallecito Union School District",
              "nces_code": "0640680",
              "greatschools_id": "10600067",
              "school_count": 3,
              "student_count": 584,
              "id": "06151429521",
              "coordinate": {
                "__typename": "Coordinate",
                "lat": 38.204002,
                "lon": -120.365128
              },
              "location": {
                "__typename": "SchoolLocation",
                "postal_code": "95224",
                "state": "CA",
                "county": "Calaveras County",
                "city": "Avery",
                "street": "4545 Moran Road"
              }
            },
            {
              "__typename": "SchoolDistrictComplete",
              "rating": null,
              "name": "Alameda Unified School District",
              "nces_code": "0601770",
              "greatschools_id": "10600001",
              "school_count": 18,
              "student_count": 11227,
              "id": "06151428561",
              "coordinate": {
                "__typename": "Coordinate",
                "lat": 37.782211,
                "lon": -122.270088
              },
              "location": {
                "__typename": "SchoolLocation",
                "postal_code": "94501",
                "state": "CA",
                "county": "Alameda County",
                "city": "Alameda",
                "street": "2060 Challenger Drive"
              }
            },
            {
              "__typename": "SchoolDistrictComplete",
              "rating": null,
              "name": "Albany City Unified School District",
              "nces_code": "0601860",
              "greatschools_id": "10600002",
              "school_count": 6,
              "student_count": 3676,
              "id": "06151428601",
              "coordinate": {
                "__typename": "Coordinate",
                "lat": 37.863857,
                "lon": -122.296822
              },
              "location": {
                "__typename": "SchoolLocation",
                "postal_code": "94710",
                "state": "CA",
                "county": "Alameda County",
                "city": "Berkeley",
                "street": "819 Bancroft Way"
              }
            },
            {
              "__typename": "SchoolDistrictComplete",
              "rating": null,
              "name": "Berkeley Unified School District",
              "nces_code": "0604740",
              "greatschools_id": "10600003",
              "school_count": 20,
              "student_count": 10154,
              "id": "06151428611",
              "coordinate": {
                "__typename": "Coordinate",
                "lat": 37.869335,
                "lon": -122.287628
              },
              "location": {
                "__typename": "SchoolLocation",
                "postal_code": "94702",
                "state": "CA",
                "county": "Alameda County",
                "city": "Berkeley",
                "street": "2020 Bonar Street"
              }
            },
            {
              "__typename": "SchoolDistrictComplete",
              "rating": null,
              "name": "Castro Valley Unified School District",
              "nces_code": "0607800",
              "greatschools_id": "10600004",
              "school_count": 16,
              "student_count": 9255,
              "id": "06151428621",
              "coordinate": {
                "__typename": "Coordinate",
                "lat": 37.708199,
                "lon": -122.071983
              },
              "location": {
                "__typename": "SchoolLocation",
                "postal_code": "94546",
                "state": "CA",
                "county": "Alameda County",
                "city": "Castro Valley",
                "street": "4400 Alma Avenue"
              }
            },
            {
              "__typename": "SchoolDistrictComplete",
              "rating": null,
              "name": "Dublin Unified School District",
              "nces_code": "0600019",
              "greatschools_id": "10600006",
              "school_count": 15,
              "student_count": 12080,
              "id": "06151428641",
              "coordinate": {
                "__typename": "Coordinate",
                "lat": 37.716831,
                "lon": -121.93087
              },
              "location": {
                "__typename": "SchoolLocation",
                "postal_code": "94568",
                "state": "CA",
                "county": "Alameda County",
                "city": "Dublin",
                "street": "7471 Larkdale Avenue"
              }
            },
            {
              "__typename": "SchoolDistrictComplete",
              "rating": null,
              "name": "Emery Unified School District",
              "nces_code": "0612630",
              "greatschools_id": "10600007",
              "school_count": 3,
              "student_count": 743,
              "id": "06151428651",
              "coordinate": {
                "__typename": "Coordinate",
                "lat": 37.836311,
                "lon": -122.281822
              },
              "location": {
                "__typename": "SchoolLocation",
                "postal_code": "94608",
                "state": "CA",
                "county": "Alameda County",
                "city": "Emeryville",
                "street": "4727 San Pablo Avenue"
              }
            },
            {
              "__typename": "SchoolDistrictComplete",
              "rating": null,
              "name": "Fremont Unified School District",
              "nces_code": "0614400",
              "greatschools_id": "10600008",
              "school_count": 42,
              "student_count": 35495,
              "id": "06151428661",
              "coordinate": {
                "__typename": "Coordinate",
                "lat": 37.507652,
                "lon": -121.954468
              },
              "location": {
                "__typename": "SchoolLocation",
                "postal_code": "94538",
                "state": "CA",
                "county": "Alameda County",
                "city": "Fremont",
                "street": "4210 Tech Dr."
              }
            },
            {
              "__typename": "SchoolDistrictComplete",
              "rating": null,
              "name": "Hayward Unified School District",
              "nces_code": "0616740",
              "greatschools_id": "10600009",
              "school_count": 33,
              "student_count": 22313,
              "id": "06151428701",
              "coordinate": {
                "__typename": "Coordinate",
                "lat": 37.656296,
                "lon": -122.093819
              },
              "location": {
                "__typename": "SchoolLocation",
                "postal_code": "94544",
                "state": "CA",
                "county": "Alameda County",
                "city": "Hayward",
                "street": "24411 Amador Street"
              }
            },
            {
              "__typename": "SchoolDistrictComplete",
              "rating": null,
              "name": "Livermore Valley Joint Unified School District",
              "nces_code": "0622110",
              "greatschools_id": "10600010",
              "school_count": 19,
              "student_count": 13717,
              "id": "06151428711",
              "coordinate": {
                "__typename": "Coordinate",
                "lat": 37.688244,
                "lon": -121.79184
              },
              "location": {
                "__typename": "SchoolLocation",
                "postal_code": "94551",
                "state": "CA",
                "county": "Alameda County",
                "city": "Livermore",
                "street": "685 East Jack London Boulevard"
              }
            }
          ]
        }
      }
    }
  },
  "{'state_code': 'NY', 'limit': 5}": {
    "error": "",
    "response": {
      "data": {
        "schools": {
          "__typename": "SchoolList",
          "total": null,
          "schools": []
        },
        "districts": {
          "__typename": "SchoolDistrictList",
          "total": 1027,
          "districts": [
            {
              "__typename": "SchoolDistrictComplete",
              "rating": null,
              "name": "Solvay Union Free School District",
              "nces_code": "3627150",
              "greatschools_id": "13600590",
              "school_count": 3,
              "student_count": 1482,
              "id": "06194294131",
              "coordinate": {
                "__typename": "Coordinate",
                "lat": 43.092754,
                "lon": -76.249992
              },
              "location": {
                "__typename": "SchoolLocation",
                "postal_code": "13209",
                "state": "NY",
                "county": "Onondaga County",
                "city": "SOLVAY",
                "street": "299 BURY DR"
              }
            },
            {
              "__typename": "SchoolDistrictComplete",
              "rating": null,
              "name": "St Regis Falls Central School District",
              "nces_code": "3627990",
              "greatschools_id": "13600611",
              "school_count": 1,
              "student_count": 266,
              "id": "06194294431",
              "coordinate": {
                "__typename": "Coordinate",
                "lat": 44.679001,
                "lon": -74.542625
              },
              "location": {
                "__typename": "SchoolLocation",
                "postal_code": "12980",
                "state": "NY",
                "county": "Franklin County",
                "city": "Saint Regis Falls",
                "street": "92 North Main Street"
              }
            },
            {
              "__typename": "SchoolDistrictComplete",
              "rating": null,
              "name": "Brasher Falls Central School District",
              "nces_code": "3627960",
              "greatschools_id": "13600609",
              "school_count": 3,
              "student_count": 1036,
              "id": "06194294411",
              "coordinate": {
                "__typename": "Coordinate",
                "lat": 44.80592,
                "lon": -74.765228
              },
              "location": {
                "__typename": "SchoolLocation",
                "postal_code": "13613",
                "state": "NY",
                "county": "St. Lawrence County",
                "city": "BRASHER FALLS",
                "street": "1039 STATE HWY 11C"
              }
            },
            {
              "__typename": "SchoolDistrictComplete",
              "rating": null,
              "name": "Sodus Central School District",
              "nces_code": "3627120",
              "greatschools_id": "13600589",
              "school_count": 3,
              "student_count": 1082,
              "id": "06194294121",
              "coordinate": {
                "__typename": "Coordinate",
                "lat": 43.229362,
                "lon": -77.062218
              },
              "location": {
                "__typename": "SchoolLocation",
                "postal_code": "14551",
                "state": "NY",
                "county": "Wayne County",
                "city": "Sodus",
                "street": "6375 Robinson Road"
              }
            },
            {
              "__typename": "SchoolDistrictComplete",
              "rating": null,
              "name": "Springs Union Free School District",
              "nces_code": "3627900",
              "greatschools_id": "13600607",
              "school_count": 1,
              "student_count": 724,
              "id": "06194294361",
              "coordinate": {
                "__typename": "Coordinate",
                "lat": 41.017395,
                "lon": -72.154686
              },
              "location": {
                "__typename": "SchoolLocation",
                "postal_code": "11937",
                "state": "NY",
                "county": "Suffolk County",
                "city": "East Hampton",
                "street": "48 School Street"
              }
            }
          ]
        }
      }
    }
  },
  "{'state_code': 'CA', 'limit': 5}": {
    "error": "",
    "response": {
      "data": {
        "schools": {
          "__typename": "SchoolList",
          "total": null,
          "schools": []
        },
        "districts": {
          "__typename": "SchoolDistrictList",
          "total": 1683,
          "districts": [
            {
              "__typename": "SchoolDistrictComplete",
              "rating": null,
              "name": "Vallecito Union School District",
              "nces_code": "0640680",
              "greatschools_id": "10600067",
              "school_count": 3,
              "student_count": 584,
              "id": "06151429521",
              "coordinate": {
                "__typename": "Coordinate",
                "lat": 38.204002,
                "lon": -120.365128
              },
              "location": {
                "__typename": "SchoolLocation",
                "postal_code": "95224",
                "state": "CA",
                "county": "Calaveras County",
                "city": "Avery",
                "street": "4545 Moran Road"
              }
            },
            {
              "__typename": "SchoolDistrictComplete",
              "rating": null,
              "name": "Alameda Unified School District",
              "nces_code": "0601770",
              "greatschools_id": "10600001",
              "school_count": 18,
              "student_count": 11227,
              "id": "06151428561",
              "coordinate": {
                "__typename": "Coordinate",
                "lat": 37.782211,
                "lon": -122.270088
              },
              "location": {
                "__typename": "SchoolLocation",
                "postal_code": "94501",
                "state": "CA",
                "county": "Alameda County",
                "city": "Alameda",
                "street": "2060 Challenger Drive"
              }
            },
            {
              "__typename": "SchoolDistrictComplete",
              "rating": null,
              "name": "Albany City Unified School District",
              "nces_code": "0601860",
              "greatschools_id": "10600002",
              "school_count": 6,
              "student_count": 3676,
              "id": "06151428601",
              "coordinate": {
                "__typename": "Coordinate",
                "lat": 37.863857,
                "lon": -122.296822
              },
              "location": {
                "__typename": "SchoolLocation",
                "postal_code": "94710",
                "state": "CA",
                "county": "Alameda County",
                "city": "Berkeley",
                "street": "819 Bancroft Way"
              }
            },
            {
              "__typename": "SchoolDistrictComplete",
              "rating": null,
              "name": "Berkeley Unified School District",
              "nces_code": "0604740",
              "greatschools_id": "10600003",
              "school_count": 20,
              "student_count": 10154,
              "id": "06151428611",
              "coordinate": {
                "__typename": "Coordinate",
                "lat": 37.869335,
                "lon": -122.287628
              },
              "location": {
                "__typename": "SchoolLocation",
                "postal_code": "94702",
                "state": "CA",
                "county": "Alameda County",
                "city": "Berkeley",
                "street": "2020 Bonar Street"
              }
            },
            {
              "__typename": "SchoolDistrictComplete",
              "rating": null,
              "name": "Castro Valley Unified School District",
              "nces_code": "0607800",
              "greatschools_id": "10600004",
              "school_count": 16,
              "student_count": 9255,
              "id": "06151428621",
              "coordinate": {
                "__typename": "Coordinate",
                "lat": 37.708199,
                "lon": -122.071983
              },
              "location": {
                "__typename": "SchoolLocation",
                "postal_code": "94546",
                "state": "CA",
                "county": "Alameda County",
                "city": "Castro Valley",
                "street": "4400 Alma Avenue"
              }
            }
          ]
        }
      }
    }
  },
  "{'state_code': 'CA'}": {
    "error": "",
    "response": {
      "data": {
        "schools": {
          "__typename": "SchoolList",
          "total": null,
          "schools": []
        },
        "districts": {
          "__typename": "SchoolDistrictList",
          "total": 1683,
          "districts": [
            {
              "__typename": "SchoolDistrictComplete",
              "rating": null,
              "name": "Vallecito Union School District",
              "nces_code": "0640680",
              "greatschools_id": "10600067",
              "school_count": 3,
              "student_count": 584,
              "id": "06151429521",
              "coordinate": {
                "__typename": "Coordinate",
                "lat": 38.204002,
                "lon": -120.365128
              },
              "location": {
                "__typename": "SchoolLocation",
                "postal_code": "95224",
                "state": "CA",
                "county": "Calaveras County",
                "city": "Avery",
                "street": "4545 Moran Road"
              }
            },
            {
              "__typename": "SchoolDistrictComplete",
              "rating": null,
              "name": "Alameda Unified School District",
              "nces_code": "0601770",
              "greatschools_id": "10600001",
              "school_count": 18,
              "student_count": 11227,
              "id": "06151428561",
              "coordinate": {
                "__typename": "Coordinate",
                "lat": 37.782211,
                "lon": -122.270088
              },
              "location": {
                "__typename": "SchoolLocation",
                "postal_code": "94501",
                "state": "CA",
                "county": "Alameda County",
                "city": "Alameda",
                "street": "2060 Challenger Drive"
              }
            },
            {
              "__typename": "SchoolDistrictComplete",
              "rating": null,
              "name": "Albany City Unified School District",
              "nces_code": "0601860",
              "greatschools_id": "10600002",
              "school_count": 6,
              "student_count": 3676,
              "id": "06151428601",
              "coordinate": {
                "__typename": "Coordinate",
                "lat": 37.863857,
                "lon": -122.296822
              },
              "location": {
                "__typename": "SchoolLocation",
                "postal_code": "94710",
                "state": "CA",
                "county": "Alameda County",
                "city": "Berkeley",
                "street": "819 Bancroft Way"
              }
            },
            {
              "__typename": "SchoolDistrictComplete",
              "rating": null,
              "name": "Berkeley Unified School District",
              "nces_code": "0604740",
              "greatschools_id": "10600003",
              "school_count": 20,
              "student_count": 10154,
              "id": "06151428611",
              "coordinate": {
                "__typename": "Coordinate",
                "lat": 37.869335,
                "lon": -122.287628
              },
              "location": {
                "__typename": "SchoolLocation",
                "postal_code": "94702",
                "state": "CA",
                "county": "Alameda County",
                "city": "Berkeley",
                "street": "2020 Bonar Street"
              }
            },
            {
              "__typename": "SchoolDistrictComplete",
              "rating": null,
              "name": "Castro Valley Unified School District",
              "nces_code": "0607800",
              "greatschools_id": "10600004",
              "school_count": 16,
              "student_count": 9255,
              "id": "06151428621",
              "coordinate": {
                "__typename": "Coordinate",
                "lat": 37.708199,
                "lon": -122.071983
              },
              "location": {
                "__typename": "SchoolLocation",
                "postal_code": "94546",
                "state": "CA",
                "county": "Alameda County",
                "city": "Castro Valley",
                "street": "4400 Alma Avenue"
              }
            },
            {
              "__typename": "SchoolDistrictComplete",
              "rating": null,
              "name": "Dublin Unified School District",
              "nces_code": "0600019",
              "greatschools_id": "10600006",
              "school_count": 15,
              "student_count": 12080,
              "id": "06151428641",
              "coordinate": {
                "__typename": "Coordinate",
                "lat": 37.716831,
                "lon": -121.93087
              },
              "location": {
                "__typename": "SchoolLocation",
                "postal_code": "94568",
                "state": "CA",
                "county": "Alameda County",
                "city": "Dublin",
                "street": "7471 Larkdale Avenue"
              }
            },
            {
              "__typename": "SchoolDistrictComplete",
              "rating": null,
              "name": "Emery Unified School District",
              "nces_code": "0612630",
              "greatschools_id": "10600007",
              "school_count": 3,
              "student_count": 743,
              "id": "06151428651",
              "coordinate": {
                "__typename": "Coordinate",
                "lat": 37.836311,
                "lon": -122.281822
              },
              "location": {
                "__typename": "SchoolLocation",
                "postal_code": "94608",
                "state": "CA",
                "county": "Alameda County",
                "city": "Emeryville",
                "street": "4727 San Pablo Avenue"
              }
            },
            {
              "__typename": "SchoolDistrictComplete",
              "rating": null,
              "name": "Fremont Unified School District",
              "nces_code": "0614400",
              "greatschools_id": "10600008",
              "school_count": 42,
              "student_count": 35495,
              "id": "06151428661",
              "coordinate": {
                "__typename": "Coordinate",
                "lat": 37.507652,
                "lon": -121.954468
              },
              "location": {
                "__typename": "SchoolLocation",
                "postal_code": "94538",
                "state": "CA",
                "county": "Alameda County",
                "city": "Fremont",
                "street": "4210 Tech Dr."
              }
            },
            {
              "__typename": "SchoolDistrictComplete",
              "rating": null,
              "name": "Hayward Unified School District",
              "nces_code": "0616740",
              "greatschools_id": "10600009",
              "school_count": 33,
              "student_count": 22313,
              "id": "06151428701",
              "coordinate": {
                "__typename": "Coordinate",
                "lat": 37.656296,
                "lon": -122.093819
              },
              "location": {
                "__typename": "SchoolLocation",
                "postal_code": "94544",
                "state": "CA",
                "county": "Alameda County",
                "city": "Hayward",
                "street": "24411 Amador Street"
              }
            },
            {
              "__typename": "SchoolDistrictComplete",
              "rating": null,
              "name": "Livermore Valley Joint Unified School District",
              "nces_code": "0622110",
              "greatschools_id": "10600010",
              "school_count": 19,
              "student_count": 13717,
              "id": "06151428711",
              "coordinate": {
                "__typename": "Coordinate",
                "lat": 37.688244,
                "lon": -121.79184
              },
              "location": {
                "__typename": "SchoolLocation",
                "postal_code": "94551",
                "state": "CA",
                "county": "Alameda County",
                "city": "Livermore",
                "street": "685 East Jack London Boulevard"
              }
            }
          ]
        }
      }
    }
  },
  "{'state_code': 'NY', 'education_level': 'elementary'}": {
    "error": "",
    "response": {
      "data": {
        "schools": {
          "__typename": "SchoolList",
          "total": null,
          "schools": []
        },
        "districts": {
          "__typename": "SchoolDistrictList",
          "total": 1027,
          "districts": [
            {
              "__typename": "SchoolDistrictComplete",
              "rating": null,
              "name": "Solvay Union Free School District",
              "nces_code": "3627150",
              "greatschools_id": "13600590",
              "school_count": 3,
              "student_count": 1482,
              "id": "06194294131",
              "coordinate": {
                "__typename": "Coordinate",
                "lat": 43.092754,
                "lon": -76.249992
              },
              "location": {
                "__typename": "SchoolLocation",
                "postal_code": "13209",
                "state": "NY",
                "county": "Onondaga County",
                "city": "SOLVAY",
                "street": "299 BURY DR"
              }
            },
            {
              "__typename": "SchoolDistrictComplete",
              "rating": null,
              "name": "St Regis Falls Central School District",
              "nces_code": "3627990",
              "greatschools_id": "13600611",
              "school_count": 1,
              "student_count": 266,
              "id": "06194294431",
              "coordinate": {
                "__typename": "Coordinate",
                "lat": 44.679001,
                "lon": -74.542625
              },
              "location": {
                "__typename": "SchoolLocation",
                "postal_code": "12980",
                "state": "NY",
                "county": "Franklin County",
                "city": "Saint Regis Falls",
                "street": "92 North Main Street"
              }
            },
            {
              "__typename": "SchoolDistrictComplete",
              "rating": null,
              "name": "Brasher Falls Central School District",
              "nces_code": "3627960",
              "greatschools_id": "13600609",
              "school_count": 3,
              "student_count": 1036,
              "id": "06194294411",
              "coordinate": {
                "__typename": "Coordinate",
                "lat": 44.80592,
                "lon": -74.765228
              },
              "location": {
                "__typename": "SchoolLocation",
                "postal_code": "13613",
                "state": "NY",
                "county": "St. Lawrence County",
                "city": "BRASHER FALLS",
                "street": "1039 STATE HWY 11C"
              }
            },
            {
              "__typename": "SchoolDistrictComplete",
              "rating": null,
              "name": "Sodus Central School District",
              "nces_code": "3627120",
              "greatschools_id": "13600589",
              "school_count": 3,
              "student_count": 1082,
              "id": "06194294121",
              "coordinate": {
                "__typename": "Coordinate",
                "lat": 43.229362,
                "lon": -77.062218
              },
              "location": {
                "__typename": "SchoolLocation",
                "postal_code": "14551",
                "state": "NY",
                "county": "Wayne County",
                "city": "Sodus",
                "street": "6375 Robinson Road"
              }
            },
            {
              "__typename": "SchoolDistrictComplete",
              "rating": null,
              "name": "Springs Union Free School District",
              "nces_code": "3627900",
              "greatschools_id": "13600607",
              "school_count": 1,
              "student_count": 724,
              "id": "06194294361",
              "coordinate": {
                "__typename": "Coordinate",
                "lat": 41.017395,
                "lon": -72.154686
              },
              "location": {
                "__typename": "SchoolLocation",
                "postal_code": "11937",
                "state": "NY",
                "county": "Suffolk County",
                "city": "East Hampton",
                "street": "48 School Street"
              }
            },
            {
              "__typename": "SchoolDistrictComplete",
              "rating": null,
              "name": "Smithtown Central School District",
              "nces_code": "3627060",
              "greatschools_id": "13600588",
              "school_count": 12,
              "student_count": 8727,
              "id": "06194294111",
              "coordinate": {
                "__typename": "Coordinate",
                "lat": 40.854084,
                "lon": -73.199722
              },
              "location": {
                "__typename": "SchoolLocation",
                "postal_code": "11787",
                "state": "NY",
                "county": "Suffolk County",
                "city": "Smithtown",
                "street": "26 New York Avenue"
              }
            },
            {
              "__typename": "SchoolDistrictComplete",
              "rating": null,
              "name": "Cheektowaga-Sloan Union Free School District",
              "nces_code": "3627000",
              "greatschools_id": "13600587",
              "school_count": 4,
              "student_count": 1397,
              "id": "06194294101",
              "coordinate": {
                "__typename": "Coordinate",
                "lat": 42.894932,
                "lon": -78.794441
              },
              "location": {
                "__typename": "SchoolLocation",
                "postal_code": "14212",
                "state": "NY",
                "county": "Erie County",
                "city": "SLOAN",
                "street": "166 HALSTEAD AVE"
              }
            },
            {
              "__typename": "SchoolDistrictComplete",
              "rating": null,
              "name": "Sherburne-Earlville Central School District",
              "nces_code": "3626700",
              "greatschools_id": "13600580",
              "school_count": 3,
              "student_count": 1397,
              "id": "06194294001",
              "coordinate": {
                "__typename": "Coordinate",
                "lat": 42.689884,
                "lon": -75.494278
              },
              "location": {
                "__typename": "SchoolLocation",
                "postal_code": "13460",
                "state": "NY",
                "county": "Chenango County",
                "city": "Sherburne",
                "street": "15 School Street"
              }
            },
            {
              "__typename": "SchoolDistrictComplete",
              "rating": null,
              "name": "Shenendehowa Central School District",
              "nces_code": "3626670",
              "greatschools_id": "13600579",
              "school_count": 12,
              "student_count": 9761,
              "id": "06194293961",
              "coordinate": {
                "__typename": "Coordinate",
                "lat": 42.869202,
                "lon": -73.770798
              },
              "location": {
                "__typename": "SchoolLocation",
                "postal_code": "12065",
                "state": "NY",
                "county": "Saratoga County",
                "city": "CLIFTON PARK",
                "street": "5 CHELSEA PL"
              }
            },
            {
              "__typename": "SchoolDistrictComplete",
              "rating": null,
              "name": "East Ramapo Central School District (Spring Valley)",
              "nces_code": "3627810",
              "greatschools_id": "13600606",
              "school_count": 14,
              "student_count": 9092,
              "id": "06194294351",
              "coordinate": {
                "__typename": "Coordinate",
                "lat": 41.103546,
                "lon": -74.049248
              },
              "location": {
                "__typename": "SchoolLocation",
                "postal_code": "10977",
                "state": "NY",
                "county": "Rockland County",
                "city": "Spring Valley",
                "street": "105 South Madison Avenue"
              }
            }
          ]
        }
      }
    }
  }
}