{
    "tool_name":"US Geo Data",
    "tool_description":"Geo Location lookup for US zip codes, cities, counties, and states. Radius search, population data, & more!",
    "title":"US Geo Data",
    "pricing":"FREEMIUM",
    "score":null,
    "home_url":"https://rapidapi.com/bendkaye/api/us-geo-data2/",
    "host":"us-geo-data2.p.rapidapi.com",
    "api_list":[
        {
            "name":"Get Zips in Radius",
            "url":"https://us-geo-data2.p.rapidapi.com/zips/radius",
            "description":"Enter a zip code or latitude & longitude coordinates with a radius (in meters) to find other zip codes within the radius!",
            "method":"GET",
            "required_parameters":[],
            "optional_parameters":[
                {
                    "name":"lng",
                    "type":"STRING",
                    "description":"",
                    "default":"-121.89408"
                },
                {
                    "name":"lat",
                    "type":"STRING",
                    "description":"",
                    "default":"37.29554"
                },
                {
                    "name":"radius",
                    "type":"STRING",
                    "description":"",
                    "default":"5000"
                },
                {
                    "name":"zip",
                    "type":"STRING",
                    "description":"",
                    "default":"95125"
                }
            ],
            "code":"import requests\n\nurl = \"https://us-geo-data2.p.rapidapi.com/zips/radius\"\nquerystring = {\"lng\": lng, \"lat\": lat, \"radius\": radius, \"zip\": zip}\n\nheaders = {\n    \"X-RapidAPI-Key\": \"SIGN-UP-FOR-KEY\",\n    \"X-RapidAPI-Host\": \"us-geo-data2.p.rapidapi.com\"\n}\n\nresponse = requests.get(url, headers=headers, params=querystring)\n\nprint(response.json())\n",
            "statuscode":200,
            "body":[
                {
                    "zip":"95125",
                    "city":"San Jose",
                    "county":"Santa Clara",
                    "state":"CA",
                    "lat":37.29554,
                    "lng":-121.89408,
                    "distance":0
                },
                {
                    "zip":"95115",
                    "city":"San Jose",
                    "county":"Santa Clara",
                    "state":"CA",
                    "lat":37.30423,
                    "lng":-121.88789,
                    "distance":1.111
                },
                {
                    "zip":"95155",
                    "city":"San Jose",
                    "county":"Santa Clara",
                    "state":"CA",
                    "lat":37.3114,
                    "lng":-121.90081,
                    "distance":1.861
                },
                {
                    "zip":"95150",
                    "city":"San Jose",
                    "county":"Santa Clara",
                    "state":"CA",
                    "lat":37.28904,
                    "lng":-121.91438,
                    "distance":1.936
                },
                {
                    "zip":"95191",
                    "city":"San Jose",
                    "county":"Santa Clara",
                    "state":"CA",
                    "lat":37.32407,
                    "lng":-121.91724,
                    "distance":3.776
                },
                {
                    "zip":"95196",
                    "city":"San Jose",
                    "county":"Santa Clara",
                    "state":"CA",
                    "lat":37.33041,
                    "lng":-121.89113,
                    "distance":3.886
                },
                {
                    "zip":"95126",
                    "city":"San Jose",
                    "county":"Santa Clara",
                    "state":"CA",
                    "lat":37.32687,
                    "lng":-121.91677,
                    "distance":4.02
                },
                {
                    "zip":"95154",
                    "city":"San Jose",
                    "county":"Santa Clara",
                    "state":"CA",
                    "lat":37.26166,
                    "lng":-121.91282,
                    "distance":4.116
                },
                {
                    "zip":"95159",
                    "city":"San Jose",
                    "county":"Santa Clara",
                    "state":"CA",
                    "lat":37.31679,
                    "lng":-121.93239,
                    "distance":4.131
                },
                {
                    "zip":"95113",
                    "city":"San Jose",
                    "county":"Santa Clara",
                    "state":"CA",
                    "lat":37.3339,
                    "lng":-121.8905,
                    "distance":4.277
                },
                {
                    "zip":"95158",
                    "city":"San Jose",
                    "county":"Santa Clara",
                    "state":"CA",
                    "lat":37.25932,
                    "lng":-121.87681,
                    "distance":4.308
                },
                {
                    "zip":"95172",
                    "city":"San Jose",
                    "county":"Santa Clara",
                    "state":"CA",
                    "lat":37.33383,
                    "lng":-121.88515,
                    "distance":4.33
                },
                {
                    "zip":"95173",
                    "city":"San Jose",
                    "county":"Santa Clara",
                    "state":"CA",
                    "lat":37.33459,
                    "lng":-121.89333,
                    "distance":4.343
                },
                {
                    "zip":"95128",
                    "city":"San Jose",
                    "county":"Santa Clara",
                    "state":"CA",
                    "lat":37.31579,
                    "lng":-121.93647,
                    "distance":4.373
                },
                {
                    "zip":"95118",
                    "city":"San Jose",
                    "county":"Santa Clara",
                    "state":"CA",
                    "lat":37.25589,
                    "lng":-121.88991,
                    "distance":4.424
                },
                {
                    "zip":"95136",
                    "city":"San Jose",
                    "county":"Santa Clara",
                    "state":"CA",
                    "lat":37.27192,
                    "lng":-121.85237,
                    "distance":4.529
                },
                {
                    "zip":"95109",
                    "city":"San Jose",
                    "county":"Santa Clara",
                    "state":"CA",
                    "lat":37.33728,
                    "lng":-121.89345,
                    "distance":4.642
                },
                {
                    "zip":"95106",
                    "city":"San Jose",
                    "county":"Santa Clara",
                    "state":"CA",
                    "lat":37.33854,
                    "lng":-121.89162,
                    "distance":4.786
                },
                {
                    "zip":"95009",
                    "city":"Campbell",
                    "county":"Santa Clara",
                    "state":"CA",
                    "lat":37.28905,
                    "lng":-121.94796,
                    "distance":4.821
                }
            ],
            "headers":{
                "access-control-allow-credentials":"true",
                "access-control-allow-origin":"*",
                "content-length":"2253",
                "content-type":"application/json; charset=utf-8",
                "date":"Sun, 11 Dec 2022 21:40:30 GMT",
                "etag":"W/\"8cd-laoERmj+E5AN8plv1WcoaKo4/fs\"",
                "server":"RapidAPI-1.2.8",
                "x-powered-by":"Express",
                "x-rapidapi-region":"AWS - eu-central-1",
                "x-rapidapi-version":"1.2.8"
            },
            "schema":{}
        },
        {
            "name":"Lookup Zip Codes",
            "url":"https://us-geo-data2.p.rapidapi.com/zips/lookup",
            "description":"Enter one or more US zip codes for a basic zip code translation\n\n**For many zips, separate by comma**",
            "method":"GET",
            "required_parameters":[],
            "optional_parameters":[
                {
                    "name":"zip",
                    "type":"STRING",
                    "description":"",
                    "default":"95125,95126"
                }
            ],
            "code":"import requests\n\nurl = \"https://us-geo-data2.p.rapidapi.com/zips/lookup\"\nquerystring = {\"zip\": zip}\n\nheaders = {\n    \"X-RapidAPI-Key\": \"SIGN-UP-FOR-KEY\",\n    \"X-RapidAPI-Host\": \"us-geo-data2.p.rapidapi.com\"\n}\n\nresponse = requests.get(url, headers=headers, params=querystring)\n\nprint(response.json())\n",
            "statuscode":200,
            "body":[
                {
                    "zip":"95125",
                    "city":"San Jose",
                    "county":"Santa Clara",
                    "state":"CA",
                    "population":54076
                },
                {
                    "zip":"95126",
                    "city":"San Jose",
                    "county":"Santa Clara",
                    "state":"CA",
                    "population":37063
                }
            ],
            "headers":{
                "access-control-allow-credentials":"true",
                "access-control-allow-origin":"*",
                "content-length":"179",
                "content-type":"application/json; charset=utf-8",
                "date":"Sun, 11 Dec 2022 21:38:04 GMT",
                "etag":"W/\"b3-FKe5E4I8E0ByfVX9jxFCmenjY00\"",
                "server":"RapidAPI-1.2.8",
                "x-powered-by":"Express",
                "x-rapidapi-region":"AWS - eu-central-1",
                "x-rapidapi-version":"1.2.8"
            },
            "schema":{
                "type":"array",
                "items":{
                    "type":"object",
                    "properties":{
                        "zip":{
                            "type":"string"
                        },
                        "city":{
                            "type":"string"
                        },
                        "county":{
                            "type":"string"
                        },
                        "state":{
                            "type":"string"
                        },
                        "population":{
                            "type":"integer"
                        }
                    }
                }
            }
        },
        {
            "name":"Get Zips in City",
            "url":"https://us-geo-data2.p.rapidapi.com/zips/city",
            "description":"Enter US city and State ID (ie \"CA\") to return all zip codes in a city.\n\n**Optional**: sortByPopulation \"asc\" or \"desc\"",
            "method":"GET",
            "required_parameters":[
                {
                    "name":"stateId",
                    "type":"STRING",
                    "description":"",
                    "default":"CA"
                },
                {
                    "name":"city",
                    "type":"STRING",
                    "description":"",
                    "default":"San Jose"
                }
            ],
            "optional_parameters":[
                {
                    "name":"sortByPopulation",
                    "type":"ENUM",
                    "description":"",
                    "default":""
                }
            ],
            "code":"import requests\n\nurl = \"https://us-geo-data2.p.rapidapi.com/zips/city\"\nquerystring = {\"stateId\": stateid, \"city\": city}\n\nheaders = {\n    \"X-RapidAPI-Key\": \"SIGN-UP-FOR-KEY\",\n    \"X-RapidAPI-Host\": \"us-geo-data2.p.rapidapi.com\"\n}\n\nresponse = requests.get(url, headers=headers, params=querystring)\n\nprint(response.json())\n",
            "statuscode":200,
            "body":[
                {
                    "zip":"95123",
                    "city":"San Jose",
                    "county":"Santa Clara",
                    "state":"CA",
                    "population":70005
                },
                {
                    "zip":"95127",
                    "city":"San Jose",
                    "county":"Santa Clara",
                    "state":"CA",
                    "population":63220
                },
                {
                    "zip":"95111",
                    "city":"San Jose",
                    "county":"Santa Clara",
                    "state":"CA",
                    "population":61183
                },
                {
                    "zip":"95112",
                    "city":"San Jose",
                    "county":"Santa Clara",
                    "state":"CA",
                    "population":59959
                },
                {
                    "zip":"95122",
                    "city":"San Jose",
                    "county":"Santa Clara",
                    "state":"CA",
                    "population":55619
                },
                {
                    "zip":"95116",
                    "city":"San Jose",
                    "county":"Santa Clara",
                    "state":"CA",
                    "population":54758
                },
                {
                    "zip":"95125",
                    "city":"San Jose",
                    "county":"Santa Clara",
                    "state":"CA",
                    "population":54076
                },
                {
                    "zip":"95124",
                    "city":"San Jose",
                    "county":"Santa Clara",
                    "state":"CA",
                    "population":52049
                },
                {
                    "zip":"95148",
                    "city":"San Jose",
                    "county":"Santa Clara",
                    "state":"CA",
                    "population":48629
                },
                {
                    "zip":"95136",
                    "city":"San Jose",
                    "county":"Santa Clara",
                    "state":"CA",
                    "population":48492
                },
                {
                    "zip":"95132",
                    "city":"San Jose",
                    "county":"Santa Clara",
                    "state":"CA",
                    "population":42726
                },
                {
                    "zip":"95129",
                    "city":"San Jose",
                    "county":"Santa Clara",
                    "state":"CA",
                    "population":40277
                },
                {
                    "zip":"95121",
                    "city":"San Jose",
                    "county":"Santa Clara",
                    "state":"CA",
                    "population":38258
                },
                {
                    "zip":"95120",
                    "city":"San Jose",
                    "county":"Santa Clara",
                    "state":"CA",
                    "population":38177
                },
                {
                    "zip":"95126",
                    "city":"San Jose",
                    "county":"Santa Clara",
                    "state":"CA",
                    "population":37063
                },
                {
                    "zip":"95128",
                    "city":"San Jose",
                    "county":"Santa Clara",
                    "state":"CA",
                    "population":35986
                },
                {
                    "zip":"95118",
                    "city":"San Jose",
                    "county":"Santa Clara",
                    "state":"CA",
                    "population":32768
                },
                {
                    "zip":"95131",
                    "city":"San Jose",
                    "county":"Santa Clara",
                    "state":"CA",
                    "population":32096
                },
                {
                    "zip":"95117",
                    "city":"San Jose",
                    "county":"Santa Clara",
                    "state":"CA",
                    "population":31702
                },
                {
                    "zip":"95134",
                    "city":"San Jose",
                    "county":"Santa Clara",
                    "state":"CA",
                    "population":30499
                },
                {
                    "zip":"95133",
                    "city":"San Jose",
                    "county":"Santa Clara",
                    "state":"CA",
                    "population":28158
                },
                {
                    "zip":"95135",
                    "city":"San Jose",
                    "county":"Santa Clara",
                    "state":"CA",
                    "population":22509
                },
                {
                    "zip":"95138",
                    "city":"San Jose",
                    "county":"Santa Clara",
                    "state":"CA",
                    "population":20597
                },
                {
                    "zip":"95110",
                    "city":"San Jose",
                    "county":"Santa Clara",
                    "state":"CA",
                    "population":20004
                },
                {
                    "zip":"95130",
                    "city":"San Jose",
                    "county":"Santa Clara",
                    "state":"CA",
                    "population":14051
                },
                {
                    "zip":"95119",
                    "city":"San Jose",
                    "county":"Santa Clara",
                    "state":"CA",
                    "population":10450
                },
                {
                    "zip":"95139",
                    "city":"San Jose",
                    "county":"Santa Clara",
                    "state":"CA",
                    "population":7262
                },
                {
                    "zip":"95113",
                    "city":"San Jose",
                    "county":"Santa Clara",
                    "state":"CA",
                    "population":2550
                },
                {
                    "zip":"95101",
                    "city":"San Jose",
                    "county":"Santa Clara",
                    "state":"CA",
                    "population":0
                },
                {
                    "zip":"95103",
                    "city":"San Jose",
                    "county":"Santa Clara",
                    "state":"CA",
                    "population":0
                },
                {
                    "zip":"95106",
                    "city":"San Jose",
                    "county":"Santa Clara",
                    "state":"CA",
                    "population":0
                },
                {
                    "zip":"95108",
                    "city":"San Jose",
                    "county":"Santa Clara",
                    "state":"CA",
                    "population":0
                },
                {
                    "zip":"95109",
                    "city":"San Jose",
                    "county":"Santa Clara",
                    "state":"CA",
                    "population":0
                },
                {
                    "zip":"95115",
                    "city":"San Jose",
                    "county":"Santa Clara",
                    "state":"CA",
                    "population":0
                },
                {
                    "zip":"95141",
                    "city":"San Jose",
                    "county":"Santa Clara",
                    "state":"CA",
                    "population":0
                },
                {
                    "zip":"95150",
                    "city":"San Jose",
                    "county":"Santa Clara",
                    "state":"CA",
                    "population":0
                },
                {
                    "zip":"95151",
                    "city":"San Jose",
                    "county":"Santa Clara",
                    "state":"CA",
                    "population":0
                },
                {
                    "zip":"95152",
                    "city":"San Jose",
                    "county":"Santa Clara",
                    "state":"CA",
                    "population":0
                },
                {
                    "zip":"95153",
                    "city":"San Jose",
                    "county":"Santa Clara",
                    "state":"CA",
                    "population":0
                },
                {
                    "zip":"95154",
                    "city":"San Jose",
                    "county":"Santa Clara",
                    "state":"CA",
                    "population":0
                },
                {
                    "zip":"95155",
                    "city":"San Jose",
                    "county":"Santa Clara",
                    "state":"CA",
                    "population":0
                },
                {
                    "zip":"95156",
                    "city":"San Jose",
                    "county":"Santa Clara",
                    "state":"CA",
                    "population":0
                },
                {
                    "zip":"95157",
                    "city":"San Jose",
                    "county":"Santa Clara",
                    "state":"CA",
                    "population":0
                },
                {
                    "zip":"95158",
                    "city":"San Jose",
                    "county":"Santa Clara",
                    "state":"CA",
                    "population":0
                },
                {
                    "zip":"95159",
                    "city":"San Jose",
                    "county":"Santa Clara",
                    "state":"CA",
                    "population":0
                },
                {
                    "zip":"95160",
                    "city":"San Jose",
                    "county":"Santa Clara",
                    "state":"CA",
                    "population":0
                },
                {
                    "zip":"95161",
                    "city":"San Jose",
                    "county":"Santa Clara",
                    "state":"CA",
                    "population":0
                },
                {
                    "zip":"95164",
                    "city":"San Jose",
                    "county":"Santa Clara",
                    "state":"CA",
                    "population":0
                },
                {
                    "zip":"95170",
                    "city":"San Jose",
                    "county":"Santa Clara",
                    "state":"CA",
                    "population":0
                },
                {
                    "zip":"95172",
                    "city":"San Jose",
                    "county":"Santa Clara",
                    "state":"CA",
                    "population":0
                },
                {
                    "zip":"95173",
                    "city":"San Jose",
                    "county":"Santa Clara",
                    "state":"CA",
                    "population":0
                },
                {
                    "zip":"95190",
                    "city":"San Jose",
                    "county":"Santa Clara",
                    "state":"CA",
                    "population":0
                },
                {
                    "zip":"95191",
                    "city":"San Jose",
                    "county":"Santa Clara",
                    "state":"CA",
                    "population":0
                },
                {
                    "zip":"95192",
                    "city":"San Jose",
                    "county":"Santa Clara",
                    "state":"CA",
                    "population":0
                },
                {
                    "zip":"95193",
                    "city":"San Jose",
                    "county":"Santa Clara",
                    "state":"CA",
                    "population":0
                },
                {
                    "zip":"95194",
                    "city":"San Jose",
                    "county":"Santa Clara",
                    "state":"CA",
                    "population":0
                },
                {
                    "zip":"95196",
                    "city":"San Jose",
                    "county":"Santa Clara",
                    "state":"CA",
                    "population":0
                }
            ],
            "headers":{
                "access-control-allow-credentials":"true",
                "access-control-allow-origin":"*",
                "content-length":"4956",
                "content-type":"application/json; charset=utf-8",
                "date":"Sun, 11 Dec 2022 21:34:53 GMT",
                "etag":"W/\"135c-ceBpud8Av36cmKKw/nhjH5fj4wo\"",
                "server":"RapidAPI-1.2.8",
                "x-powered-by":"Express",
                "x-rapidapi-region":"AWS - eu-central-1",
                "x-rapidapi-version":"1.2.8"
            },
            "schema":{
                "type":"array",
                "items":{
                    "type":"object",
                    "properties":{
                        "zip":{
                            "type":"string"
                        },
                        "city":{
                            "type":"string"
                        },
                        "county":{
                            "type":"string"
                        },
                        "state":{
                            "type":"string"
                        },
                        "population":{
                            "type":"integer"
                        }
                    }
                }
            }
        },
        {
            "name":"Get Zips in County",
            "url":"https://us-geo-data2.p.rapidapi.com/zips/county",
            "description":"Enter US county and State ID (ie \"CA\") to return all zip codes in a city.\n\n**Optional**: sortByPopulation \"asc\" or \"desc\"",
            "method":"GET",
            "required_parameters":[
                {
                    "name":"county",
                    "type":"STRING",
                    "description":"",
                    "default":"Santa Clara"
                },
                {
                    "name":"stateId",
                    "type":"STRING",
                    "description":"",
                    "default":"CA"
                }
            ],
            "optional_parameters":[
                {
                    "name":"sortByPopulation",
                    "type":"ENUM",
                    "description":"",
                    "default":""
                }
            ],
            "code":"import requests\n\nurl = \"https://us-geo-data2.p.rapidapi.com/zips/county\"\nquerystring = {\"county\": county, \"stateId\": stateid}\n\nheaders = {\n    \"X-RapidAPI-Key\": \"SIGN-UP-FOR-KEY\",\n    \"X-RapidAPI-Host\": \"us-geo-data2.p.rapidapi.com\"\n}\n\nresponse = requests.get(url, headers=headers, params=querystring)\n\nprint(response.json())\n",
            "statuscode":200,
            "body":[
                {
                    "zip":"95035",
                    "city":"Milpitas",
                    "county":"Santa Clara",
                    "countyFips":6085,
                    "state":"CA",
                    "population":75367
                },
                {
                    "zip":"95123",
                    "city":"San Jose",
                    "county":"Santa Clara",
                    "countyFips":6085,
                    "state":"CA",
                    "population":70005
                },
                {
                    "zip":"95020",
                    "city":"Gilroy",
                    "county":"Santa Clara",
                    "countyFips":6085,
                    "state":"CA",
                    "population":63522
                },
                {
                    "zip":"95127",
                    "city":"San Jose",
                    "county":"Santa Clara",
                    "countyFips":6085,
                    "state":"CA",
                    "population":63220
                },
                {
                    "zip":"95014",
                    "city":"Cupertino",
                    "county":"Santa Clara",
                    "countyFips":6085,
                    "state":"CA",
                    "population":61480
                },
                {
                    "zip":"95111",
                    "city":"San Jose",
                    "county":"Santa Clara",
                    "countyFips":6085,
                    "state":"CA",
                    "population":61183
                },
                {
                    "zip":"95112",
                    "city":"San Jose",
                    "county":"Santa Clara",
                    "countyFips":6085,
                    "state":"CA",
                    "population":59959
                },
                {
                    "zip":"95051",
                    "city":"Santa Clara",
                    "county":"Santa Clara",
                    "countyFips":6085,
                    "state":"CA",
                    "population":59209
                },
                {
                    "zip":"94087",
                    "city":"Sunnyvale",
                    "county":"Santa Clara",
                    "countyFips":6085,
                    "state":"CA",
                    "population":57015
                },
                {
                    "zip":"95122",
                    "city":"San Jose",
                    "county":"Santa Clara",
                    "countyFips":6085,
                    "state":"CA",
                    "population":55619
                },
                {
                    "zip":"95116",
                    "city":"San Jose",
                    "county":"Santa Clara",
                    "countyFips":6085,
                    "state":"CA",
                    "population":54758
                },
                {
                    "zip":"95125",
                    "city":"San Jose",
                    "county":"Santa Clara",
                    "countyFips":6085,
                    "state":"CA",
                    "population":54076
                },
                {
                    "zip":"95124",
                    "city":"San Jose",
                    "county":"Santa Clara",
                    "countyFips":6085,
                    "state":"CA",
                    "population":52049
                },
                {
                    "zip":"95037",
                    "city":"Morgan Hill",
                    "county":"Santa Clara",
                    "countyFips":6085,
                    "state":"CA",
                    "population":51968
                },
                {
                    "zip":"94086",
                    "city":"Sunnyvale",
                    "county":"Santa Clara",
                    "countyFips":6085,
                    "state":"CA",
                    "population":49190
                },
                {
                    "zip":"95148",
                    "city":"San Jose",
                    "county":"Santa Clara",
                    "countyFips":6085,
                    "state":"CA",
                    "population":48629
                },
                {
                    "zip":"95136",
                    "city":"San Jose",
                    "county":"Santa Clara",
                    "countyFips":6085,
                    "state":"CA",
                    "population":48492
                },
                {
                    "zip":"95008",
                    "city":"Campbell",
                    "county":"Santa Clara",
                    "countyFips":6085,
                    "state":"CA",
                    "population":47886
                },
                {
                    "zip":"94303",
                    "city":"Palo Alto",
                    "county":"Santa Clara",
                    "countyFips":6085,
                    "state":"CA",
                    "population":47828
                },
                {
                    "zip":"95132",
                    "city":"San Jose",
                    "county":"Santa Clara",
                    "countyFips":6085,
                    "state":"CA",
                    "population":42726
                },
                {
                    "zip":"95129",
                    "city":"San Jose",
                    "county":"Santa Clara",
                    "countyFips":6085,
                    "state":"CA",
                    "population":40277
                },
                {
                    "zip":"95050",
                    "city":"Santa Clara",
                    "county":"Santa Clara",
                    "countyFips":6085,
                    "state":"CA",
                    "population":38884
                },
                {
                    "zip":"95121",
                    "city":"San Jose",
                    "county":"Santa Clara",
                    "countyFips":6085,
                    "state":"CA",
                    "population":38258
                },
                {
                    "zip":"95120",
                    "city":"San Jose",
                    "county":"Santa Clara",
                    "countyFips":6085,
                    "state":"CA",
                    "population":38177
                },
                {
                    "zip":"95126",
                    "city":"San Jose",
                    "county":"Santa Clara",
                    "countyFips":6085,
                    "state":"CA",
                    "population":37063
                },
                {
                    "zip":"95128",
                    "city":"San Jose",
                    "county":"Santa Clara",
                    "countyFips":6085,
                    "state":"CA",
                    "population":35986
                },
                {
                    "zip":"94040",
                    "city":"Mountain View",
                    "county":"Santa Clara",
                    "countyFips":6085,
                    "state":"CA",
                    "population":34804
                },
                {
                    "zip":"95118",
                    "city":"San Jose",
                    "county":"Santa Clara",
                    "countyFips":6085,
                    "state":"CA",
                    "population":32768
                },
                {
                    "zip":"95131",
                    "city":"San Jose",
                    "county":"Santa Clara",
                    "countyFips":6085,
                    "state":"CA",
                    "population":32096
                },
                {
                    "zip":"94043",
                    "city":"Mountain View",
                    "county":"Santa Clara",
                    "countyFips":6085,
                    "state":"CA",
                    "population":31999
                },
                {
                    "zip":"95117",
                    "city":"San Jose",
                    "county":"Santa Clara",
                    "countyFips":6085,
                    "state":"CA",
                    "population":31702
                },
                {
                    "zip":"95070",
                    "city":"Saratoga",
                    "county":"Santa Clara",
                    "countyFips":6085,
                    "state":"CA",
                    "population":31442
                },
                {
                    "zip":"95134",
                    "city":"San Jose",
                    "county":"Santa Clara",
                    "countyFips":6085,
                    "state":"CA",
                    "population":30499
                },
                {
                    "zip":"95133",
                    "city":"San Jose",
                    "county":"Santa Clara",
                    "countyFips":6085,
                    "state":"CA",
                    "population":28158
                },
                {
                    "zip":"94306",
                    "city":"Palo Alto",
                    "county":"Santa Clara",
                    "countyFips":6085,
                    "state":"CA",
                    "population":27650
                },
                {
                    "zip":"95032",
                    "city":"Los Gatos",
                    "county":"Santa Clara",
                    "countyFips":6085,
                    "state":"CA",
                    "population":25865
                },
                {
                    "zip":"95054",
                    "city":"Santa Clara",
                    "county":"Santa Clara",
                    "countyFips":6085,
                    "state":"CA",
                    "population":23959
                },
                {
                    "zip":"94024",
                    "city":"Los Altos",
                    "county":"Santa Clara",
                    "countyFips":6085,
                    "state":"CA",
                    "population":23704
                },
                {
                    "zip":"94085",
                    "city":"Sunnyvale",
                    "county":"Santa Clara",
                    "countyFips":6085,
                    "state":"CA",
                    "population":23592
                },
                {
                    "zip":"94089",
                    "city":"Sunnyvale",
                    "county":"Santa Clara",
                    "countyFips":6085,
                    "state":"CA",
                    "population":23049
                },
                {
                    "zip":"95135",
                    "city":"San Jose",
                    "county":"Santa Clara",
                    "countyFips":6085,
                    "state":"CA",
                    "population":22509
                },
                {
                    "zip":"95138",
                    "city":"San Jose",
                    "county":"Santa Clara",
                    "countyFips":6085,
                    "state":"CA",
                    "population":20597
                },
                {
                    "zip":"95110",
                    "city":"San Jose",
                    "county":"Santa Clara",
                    "countyFips":6085,
                    "state":"CA",
                    "population":20004
                },
                {
                    "zip":"94022",
                    "city":"Los Altos",
                    "county":"Santa Clara",
                    "countyFips":6085,
                    "state":"CA",
                    "population":19701
                },
                {
                    "zip":"94301",
                    "city":"Palo Alto",
                    "county":"Santa Clara",
                    "countyFips":6085,
                    "state":"CA",
                    "population":17470
                },
                {
                    "zip":"94305",
                    "city":"Stanford",
                    "county":"Santa Clara",
                    "countyFips":6085,
                    "state":"CA",
                    "population":16283
                },
                {
                    "zip":"95130",
                    "city":"San Jose",
                    "county":"Santa Clara",
                    "countyFips":6085,
                    "state":"CA",
                    "population":14051
                },
                {
                    "zip":"94041",
                    "city":"Mountain View",
                    "county":"Santa Clara",
                    "countyFips":6085,
                    "state":"CA",
                    "population":13996
                },
                {
                    "zip":"95030",
                    "city":"Los Gatos",
                    "county":"Santa Clara",
                    "countyFips":6085,
                    "state":"CA",
                    "population":13631
                },
                {
                    "zip":"95119",
                    "city":"San Jose",
                    "county":"Santa Clara",
                    "countyFips":6085,
                    "state":"CA",
                    "population":10450
                },
                {
                    "zip":"95139",
                    "city":"San Jose",
                    "county":"Santa Clara",
                    "countyFips":6085,
                    "state":"CA",
                    "population":7262
                },
                {
                    "zip":"95046",
                    "city":"San Martin",
                    "county":"Santa Clara",
                    "countyFips":6085,
                    "state":"CA",
                    "population":5905
                },
                {
                    "zip":"94304",
                    "city":"Palo Alto",
                    "county":"Santa Clara",
                    "countyFips":6085,
                    "state":"CA",
                    "population":4391
                },
                {
                    "zip":"95053",
                    "city":"Santa Clara",
                    "county":"Santa Clara",
                    "countyFips":6085,
                    "state":"CA",
                    "population":3835
                },
                {
                    "zip":"95113",
                    "city":"San Jose",
                    "county":"Santa Clara",
                    "countyFips":6085,
                    "state":"CA",
                    "population":2550
                },
                {
                    "zip":"95002",
                    "city":"Alviso",
                    "county":"Santa Clara",
                    "countyFips":6085,
                    "state":"CA",
                    "population":2251
                },
                {
                    "zip":"95140",
                    "city":"Mount Hamilton",
                    "county":"Santa Clara",
                    "countyFips":6085,
                    "state":"CA",
                    "population":56
                },
                {
                    "zip":"95013",
                    "city":"Coyote",
                    "county":"Santa Clara",
                    "countyFips":6085,
                    "state":"CA",
                    "population":34
                },
                {
                    "zip":"94023",
                    "city":"Los Altos",
                    "county":"Santa Clara",
                    "countyFips":6085,
                    "state":"CA",
                    "population":0
                },
                {
                    "zip":"94035",
                    "city":"Mountain View",
                    "county":"Santa Clara",
                    "countyFips":6085,
                    "state":"CA",
                    "population":0
                },
                {
                    "zip":"94039",
                    "city":"Mountain View",
                    "county":"Santa Clara",
                    "countyFips":6085,
                    "state":"CA",
                    "population":0
                },
                {
                    "zip":"94042",
                    "city":"Mountain View",
                    "county":"Santa Clara",
                    "countyFips":6085,
                    "state":"CA",
                    "population":0
                },
                {
                    "zip":"94088",
                    "city":"Sunnyvale",
                    "county":"Santa Clara",
                    "countyFips":6085,
                    "state":"CA",
                    "population":0
                },
                {
                    "zip":"94302",
                    "city":"Palo Alto",
                    "county":"Santa Clara",
                    "countyFips":6085,
                    "state":"CA",
                    "population":0
                },
                {
                    "zip":"94309",
                    "city":"Palo Alto",
                    "county":"Santa Clara",
                    "countyFips":6085,
                    "state":"CA",
                    "population":0
                },
                {
                    "zip":"95009",
                    "city":"Campbell",
                    "county":"Santa Clara",
                    "countyFips":6085,
                    "state":"CA",
                    "population":0
                },
                {
                    "zip":"95011",
                    "city":"Campbell",
                    "county":"Santa Clara",
                    "countyFips":6085,
                    "state":"CA",
                    "population":0
                },
                {
                    "zip":"95015",
                    "city":"Cupertino",
                    "county":"Santa Clara",
                    "countyFips":6085,
                    "state":"CA",
                    "population":0
                },
                {
                    "zip":"95021",
                    "city":"Gilroy",
                    "county":"Santa Clara",
                    "countyFips":6085,
                    "state":"CA",
                    "population":0
                },
                {
                    "zip":"95026",
                    "city":"Holy City",
                    "county":"Santa Clara",
                    "countyFips":6085,
                    "state":"CA",
                    "population":0
                },
                {
                    "zip":"95031",
                    "city":"Los Gatos",
                    "county":"Santa Clara",
                    "countyFips":6085,
                    "state":"CA",
                    "population":0
                },
                {
                    "zip":"95036",
                    "city":"Milpitas",
                    "county":"Santa Clara",
                    "countyFips":6085,
                    "state":"CA",
                    "population":0
                },
                {
                    "zip":"95038",
                    "city":"Morgan Hill",
                    "county":"Santa Clara",
                    "countyFips":6085,
                    "state":"CA",
                    "population":0
                },
                {
                    "zip":"95042",
                    "city":"New Almaden",
                    "county":"Santa Clara",
                    "countyFips":6085,
                    "state":"CA",
                    "population":0
                },
                {
                    "zip":"95044",
                    "city":"Redwood Estates",
                    "county":"Santa Clara",
                    "countyFips":6085,
                    "state":"CA",
                    "population":0
                },
                {
                    "zip":"95052",
                    "city":"Santa Clara",
                    "county":"Santa Clara",
                    "countyFips":6085,
                    "state":"CA",
                    "population":0
                },
                {
                    "zip":"95055",
                    "city":"Santa Clara",
                    "county":"Santa Clara",
                    "countyFips":6085,
                    "state":"CA",
                    "population":0
                },
                {
                    "zip":"95056",
                    "city":"Santa Clara",
                    "county":"Santa Clara",
                    "countyFips":6085,
                    "state":"CA",
                    "population":0
                },
                {
                    "zip":"95071",
                    "city":"Saratoga",
                    "county":"Santa Clara",
                    "countyFips":6085,
                    "state":"CA",
                    "population":0
                },
                {
                    "zip":"95101",
                    "city":"San Jose",
                    "county":"Santa Clara",
                    "countyFips":6085,
                    "state":"CA",
                    "population":0
                },
                {
                    "zip":"95103",
                    "city":"San Jose",
                    "county":"Santa Clara",
                    "countyFips":6085,
                    "state":"CA",
                    "population":0
                },
                {
                    "zip":"95106",
                    "city":"San Jose",
                    "county":"Santa Clara",
                    "countyFips":6085,
                    "state":"CA",
                    "population":0
                },
                {
                    "zip":"95108",
                    "city":"San Jose",
                    "county":"Santa Clara",
                    "countyFips":6085,
                    "state":"CA",
                    "population":0
                },
                {
                    "zip":"95109",
                    "city":"San Jose",
                    "county":"Santa Clara",
                    "countyFips":6085,
                    "state":"CA",
                    "population":0
                },
                {
                    "zip":"95115",
                    "city":"San Jose",
                    "county":"Santa Clara",
                    "countyFips":6085,
                    "state":"CA",
                    "population":0
                },
                {
                    "zip":"95141",
                    "city":"San Jose",
                    "county":"Santa Clara",
                    "countyFips":6085,
                    "state":"CA",
                    "population":0
                },
                {
                    "zip":"95150",
                    "city":"San Jose",
                    "county":"Santa Clara",
                    "countyFips":6085,
                    "state":"CA",
                    "population":0
                },
                {
                    "zip":"95151",
                    "city":"San Jose",
                    "county":"Santa Clara",
                    "countyFips":6085,
                    "state":"CA",
                    "population":0
                },
                {
                    "zip":"95152",
                    "city":"San Jose",
                    "county":"Santa Clara",
                    "countyFips":6085,
                    "state":"CA",
                    "population":0
                },
                {
                    "zip":"95153",
                    "city":"San Jose",
                    "county":"Santa Clara",
                    "countyFips":6085,
                    "state":"CA",
                    "population":0
                },
                {
                    "zip":"95154",
                    "city":"San Jose",
                    "county":"Santa Clara",
                    "countyFips":6085,
                    "state":"CA",
                    "population":0
                },
                {
                    "zip":"95155",
                    "city":"San Jose",
                    "county":"Santa Clara",
                    "countyFips":6085,
                    "state":"CA",
                    "population":0
                },
                {
                    "zip":"95156",
                    "city":"San Jose",
                    "county":"Santa Clara",
                    "countyFips":6085,
                    "state":"CA",
                    "population":0
                },
                {
                    "zip":"95157",
                    "city":"San Jose",
                    "county":"Santa Clara",
                    "countyFips":6085,
                    "state":"CA",
                    "population":0
                },
                {
                    "zip":"95158",
                    "city":"San Jose",
                    "county":"Santa Clara",
                    "countyFips":6085,
                    "state":"CA",
                    "population":0
                },
                {
                    "zip":"95159",
                    "city":"San Jose",
                    "county":"Santa Clara",
                    "countyFips":6085,
                    "state":"CA",
                    "population":0
                },
                {
                    "zip":"95160",
                    "city":"San Jose",
                    "county":"Santa Clara",
                    "countyFips":6085,
                    "state":"CA",
                    "population":0
                },
                {
                    "zip":"95161",
                    "city":"San Jose",
                    "county":"Santa Clara",
                    "countyFips":6085,
                    "state":"CA",
                    "population":0
                },
                {
                    "zip":"95164",
                    "city":"San Jose",
                    "county":"Santa Clara",
                    "countyFips":6085,
                    "state":"CA",
                    "population":0
                },
                {
                    "zip":"95170",
                    "city":"San Jose",
                    "county":"Santa Clara",
                    "countyFips":6085,
                    "state":"CA",
                    "population":0
                },
                {
                    "zip":"95172",
                    "city":"San Jose",
                    "county":"Santa Clara",
                    "countyFips":6085,
                    "state":"CA",
                    "population":0
                },
                {
                    "zip":"95173",
                    "city":"San Jose",
                    "county":"Santa Clara",
                    "countyFips":6085,
                    "state":"CA",
                    "population":0
                },
                {
                    "zip":"95190",
                    "city":"San Jose",
                    "county":"Santa Clara",
                    "countyFips":6085,
                    "state":"CA",
                    "population":0
                },
                {
                    "zip":"95191",
                    "city":"San Jose",
                    "county":"Santa Clara",
                    "countyFips":6085,
                    "state":"CA",
                    "population":0
                },
                {
                    "zip":"95192",
                    "city":"San Jose",
                    "county":"Santa Clara",
                    "countyFips":6085,
                    "state":"CA",
                    "population":0
                },
                {
                    "zip":"95193",
                    "city":"San Jose",
                    "county":"Santa Clara",
                    "countyFips":6085,
                    "state":"CA",
                    "population":0
                },
                {
                    "zip":"95194",
                    "city":"San Jose",
                    "county":"Santa Clara",
                    "countyFips":6085,
                    "state":"CA",
                    "population":0
                },
                {
                    "zip":"95196",
                    "city":"San Jose",
                    "county":"Santa Clara",
                    "countyFips":6085,
                    "state":"CA",
                    "population":0
                }
            ],
            "headers":{
                "access-control-allow-credentials":"true",
                "access-control-allow-origin":"*",
                "content-length":"11432",
                "content-type":"application/json; charset=utf-8",
                "date":"Sun, 11 Dec 2022 21:29:27 GMT",
                "etag":"W/\"2ca8-2xvGtTdkl0j7QOMtGj/rKnBQ9pI\"",
                "server":"RapidAPI-1.2.8",
                "x-powered-by":"Express",
                "x-rapidapi-region":"AWS - eu-central-1",
                "x-rapidapi-version":"1.2.8"
            },
            "schema":{
                "type":"array",
                "items":{
                    "type":"object",
                    "properties":{
                        "zip":{
                            "type":"string"
                        },
                        "city":{
                            "type":"string"
                        },
                        "county":{
                            "type":"string"
                        },
                        "countyFips":{
                            "type":"integer"
                        },
                        "state":{
                            "type":"string"
                        },
                        "population":{
                            "type":"integer"
                        }
                    }
                }
            }
        },
        {
            "name":"Get Zips in State",
            "url":"https://us-geo-data2.p.rapidapi.com/zips/state",
            "description":"Enter US State ID (ie \"CA\") to return all zip codes in a state.\n\n*Optional*: sortByPopulation \"asc\" or \"desc\"",
            "method":"GET",
            "required_parameters":[
                {
                    "name":"stateId",
                    "type":"STRING",
                    "description":"",
                    "default":"RI"
                }
            ],
            "optional_parameters":[
                {
                    "name":"sortByPopulation",
                    "type":"ENUM",
                    "description":"",
                    "default":""
                }
            ],
            "code":"import requests\n\nurl = \"https://us-geo-data2.p.rapidapi.com/zips/state\"\nquerystring = {\"stateId\": stateid}\n\nheaders = {\n    \"X-RapidAPI-Key\": \"SIGN-UP-FOR-KEY\",\n    \"X-RapidAPI-Host\": \"us-geo-data2.p.rapidapi.com\"\n}\n\nresponse = requests.get(url, headers=headers, params=querystring)\n\nprint(response.json())\n",
            "statuscode":200,
            "body":[
                {
                    "zip":"02860",
                    "city":"Pawtucket",
                    "county":"Providence",
                    "state":"RI",
                    "population":47175
                },
                {
                    "zip":"02895",
                    "city":"Woonsocket",
                    "county":"Providence",
                    "state":"RI",
                    "population":41616
                },
                {
                    "zip":"02909",
                    "city":"Providence",
                    "county":"Providence",
                    "state":"RI",
                    "population":40286
                },
                {
                    "zip":"02908",
                    "city":"Providence",
                    "county":"Providence",
                    "state":"RI",
                    "population":37792
                },
                {
                    "zip":"02920",
                    "city":"Cranston",
                    "county":"Providence",
                    "state":"RI",
                    "population":36695
                },
                {
                    "zip":"02864",
                    "city":"Cumberland",
                    "county":"Providence",
                    "state":"RI",
                    "population":34936
                },
                {
                    "zip":"02816",
                    "city":"Coventry",
                    "county":"Kent",
                    "state":"RI",
                    "population":32683
                },
                {
                    "zip":"02907",
                    "city":"Providence",
                    "county":"Providence",
                    "state":"RI",
                    "population":31277
                },
                {
                    "zip":"02904",
                    "city":"Providence",
                    "county":"Providence",
                    "state":"RI",
                    "population":29881
                },
                {
                    "zip":"02886",
                    "city":"Warwick",
                    "county":"Kent",
                    "state":"RI",
                    "population":29443
                },
                {
                    "zip":"02919",
                    "city":"Johnston",
                    "county":"Providence",
                    "state":"RI",
                    "population":29312
                },
                {
                    "zip":"02893",
                    "city":"West Warwick",
                    "county":"Kent",
                    "state":"RI",
                    "population":29283
                },
                {
                    "zip":"02906",
                    "city":"Providence",
                    "county":"Providence",
                    "state":"RI",
                    "population":28254
                },
                {
                    "zip":"02889",
                    "city":"Warwick",
                    "county":"Kent",
                    "state":"RI",
                    "population":27531
                },
                {
                    "zip":"02905",
                    "city":"Providence",
                    "county":"Providence",
                    "state":"RI",
                    "population":26020
                },
                {
                    "zip":"02861",
                    "city":"Pawtucket",
                    "county":"Providence",
                    "state":"RI",
                    "population":24764
                },
                {
                    "zip":"02840",
                    "city":"Newport",
                    "county":"Newport",
                    "state":"RI",
                    "population":22976
                },
                {
                    "zip":"02809",
                    "city":"Bristol",
                    "county":"Bristol",
                    "state":"RI",
                    "population":22095
                },
                {
                    "zip":"02910",
                    "city":"Cranston",
                    "county":"Providence",
                    "state":"RI",
                    "population":21746
                },
                {
                    "zip":"02914",
                    "city":"East Providence",
                    "county":"Providence",
                    "state":"RI",
                    "population":21720
                },
                {
                    "zip":"02852",
                    "city":"North Kingstown",
                    "county":"Washington",
                    "state":"RI",
                    "population":21653
                },
                {
                    "zip":"02891",
                    "city":"Westerly",
                    "county":"Washington",
                    "state":"RI",
                    "population":21196
                },
                {
                    "zip":"02879",
                    "city":"Wakefield",
                    "county":"Washington",
                    "state":"RI",
                    "population":20851
                },
                {
                    "zip":"02863",
                    "city":"Central Falls",
                    "county":"Providence",
                    "state":"RI",
                    "population":19437
                },
                {
                    "zip":"02818",
                    "city":"East Greenwich",
                    "county":"Kent",
                    "state":"RI",
                    "population":18790
                },
                {
                    "zip":"02888",
                    "city":"Warwick",
                    "county":"Kent",
                    "state":"RI",
                    "population":17901
                },
                {
                    "zip":"02865",
                    "city":"Lincoln",
                    "county":"Providence",
                    "state":"RI",
                    "population":17876
                },
                {
                    "zip":"02871",
                    "city":"Portsmouth",
                    "county":"Newport",
                    "state":"RI",
                    "population":17108
                },
                {
                    "zip":"02915",
                    "city":"Riverside",
                    "county":"Providence",
                    "state":"RI",
                    "population":16423
                },
                {
                    "zip":"02806",
                    "city":"Barrington",
                    "county":"Bristol",
                    "state":"RI",
                    "population":16106
                },
                {
                    "zip":"02842",
                    "city":"Middletown",
                    "county":"Newport",
                    "state":"RI",
                    "population":15931
                },
                {
                    "zip":"02878",
                    "city":"Tiverton",
                    "county":"Newport",
                    "state":"RI",
                    "population":15730
                },
                {
                    "zip":"02911",
                    "city":"North Providence",
                    "county":"Providence",
                    "state":"RI",
                    "population":15627
                },
                {
                    "zip":"02917",
                    "city":"Smithfield",
                    "county":"Providence",
                    "state":"RI",
                    "population":14260
                },
                {
                    "zip":"02882",
                    "city":"Narragansett",
                    "county":"Washington",
                    "state":"RI",
                    "population":14204
                },
                {
                    "zip":"02921",
                    "city":"Cranston",
                    "county":"Providence",
                    "state":"RI",
                    "population":12463
                },
                {
                    "zip":"02896",
                    "city":"North Smithfield",
                    "county":"Providence",
                    "state":"RI",
                    "population":11901
                },
                {
                    "zip":"02903",
                    "city":"Providence",
                    "county":"Providence",
                    "state":"RI",
                    "population":11443
                },
                {
                    "zip":"02885",
                    "city":"Warren",
                    "county":"Bristol",
                    "state":"RI",
                    "population":10451
                },
                {
                    "zip":"02916",
                    "city":"Rumford",
                    "county":"Providence",
                    "state":"RI",
                    "population":9292
                },
                {
                    "zip":"02814",
                    "city":"Chepachet",
                    "county":"Providence",
                    "state":"RI",
                    "population":8033
                },
                {
                    "zip":"02859",
                    "city":"Pascoag",
                    "county":"Providence",
                    "state":"RI",
                    "population":7992
                },
                {
                    "zip":"02857",
                    "city":"North Scituate",
                    "county":"Providence",
                    "state":"RI",
                    "population":7969
                },
                {
                    "zip":"02813",
                    "city":"Charlestown",
                    "county":"Washington",
                    "state":"RI",
                    "population":7832
                },
                {
                    "zip":"02881",
                    "city":"Kingston",
                    "county":"Washington",
                    "state":"RI",
                    "population":7593
                },
                {
                    "zip":"02828",
                    "city":"Greenville",
                    "county":"Providence",
                    "state":"RI",
                    "population":7528
                },
                {
                    "zip":"02874",
                    "city":"Saunderstown",
                    "county":"Washington",
                    "state":"RI",
                    "population":6620
                },
                {
                    "zip":"02817",
                    "city":"West Greenwich",
                    "county":"Kent",
                    "state":"RI",
                    "population":6297
                },
                {
                    "zip":"02822",
                    "city":"Exeter",
                    "county":"Washington",
                    "state":"RI",
                    "population":6018
                },
                {
                    "zip":"02825",
                    "city":"Foster",
                    "county":"Providence",
                    "state":"RI",
                    "population":5964
                },
                {
                    "zip":"02830",
                    "city":"Harrisville",
                    "county":"Providence",
                    "state":"RI",
                    "population":5624
                },
                {
                    "zip":"02892",
                    "city":"West Kingston",
                    "county":"Washington",
                    "state":"RI",
                    "population":5502
                },
                {
                    "zip":"02835",
                    "city":"Jamestown",
                    "county":"Newport",
                    "state":"RI",
                    "population":5494
                },
                {
                    "zip":"02832",
                    "city":"Hope Valley",
                    "county":"Washington",
                    "state":"RI",
                    "population":4713
                },
                {
                    "zip":"02831",
                    "city":"Hope",
                    "county":"Providence",
                    "state":"RI",
                    "population":3725
                },
                {
                    "zip":"02838",
                    "city":"Manville",
                    "county":"Providence",
                    "state":"RI",
                    "population":3521
                },
                {
                    "zip":"02837",
                    "city":"Little Compton",
                    "county":"Newport",
                    "state":"RI",
                    "population":3496
                },
                {
                    "zip":"02808",
                    "city":"Bradford",
                    "county":"Washington",
                    "state":"RI",
                    "population":2466
                },
                {
                    "zip":"02827",
                    "city":"Greene",
                    "county":"Kent",
                    "state":"RI",
                    "population":2194
                },
                {
                    "zip":"02839",
                    "city":"Mapleville",
                    "county":"Providence",
                    "state":"RI",
                    "population":2100
                },
                {
                    "zip":"02804",
                    "city":"Ashaway",
                    "county":"Washington",
                    "state":"RI",
                    "population":2005
                },
                {
                    "zip":"02841",
                    "city":"Newport",
                    "county":"Newport",
                    "state":"RI",
                    "population":1792
                },
                {
                    "zip":"02812",
                    "city":"Carolina",
                    "county":"Washington",
                    "state":"RI",
                    "population":1300
                },
                {
                    "zip":"02912",
                    "city":"Providence",
                    "county":"Providence",
                    "state":"RI",
                    "population":1279
                },
                {
                    "zip":"02898",
                    "city":"Wyoming",
                    "county":"Washington",
                    "state":"RI",
                    "population":1137
                },
                {
                    "zip":"02833",
                    "city":"Hopkinton",
                    "county":"Washington",
                    "state":"RI",
                    "population":932
                },
                {
                    "zip":"02807",
                    "city":"Block Island",
                    "county":"Washington",
                    "state":"RI",
                    "population":871
                },
                {
                    "zip":"02858",
                    "city":"Oakland",
                    "county":"Providence",
                    "state":"RI",
                    "population":613
                },
                {
                    "zip":"02876",
                    "city":"Slatersville",
                    "county":"Providence",
                    "state":"RI",
                    "population":577
                },
                {
                    "zip":"02894",
                    "city":"Wood River Junction",
                    "county":"Washington",
                    "state":"RI",
                    "population":512
                },
                {
                    "zip":"02802",
                    "city":"Albion",
                    "county":"Providence",
                    "state":"RI",
                    "population":501
                },
                {
                    "zip":"02875",
                    "city":"Shannock",
                    "county":"Washington",
                    "state":"RI",
                    "population":439
                },
                {
                    "zip":"02826",
                    "city":"Glendale",
                    "county":"Providence",
                    "state":"RI",
                    "population":382
                },
                {
                    "zip":"02872",
                    "city":"Prudence Island",
                    "county":"Newport",
                    "state":"RI",
                    "population":204
                },
                {
                    "zip":"02836",
                    "city":"Kenyon",
                    "county":"Washington",
                    "state":"RI",
                    "population":165
                },
                {
                    "zip":"02815",
                    "city":"Clayville",
                    "county":"Providence",
                    "state":"RI",
                    "population":150
                },
                {
                    "zip":"02873",
                    "city":"Rockville",
                    "county":"Washington",
                    "state":"RI",
                    "population":130
                },
                {
                    "zip":"02801",
                    "city":"Adamsville",
                    "county":"Newport",
                    "state":"RI",
                    "population":0
                },
                {
                    "zip":"02823",
                    "city":"Fiskeville",
                    "county":"Providence",
                    "state":"RI",
                    "population":0
                },
                {
                    "zip":"02824",
                    "city":"Forestdale",
                    "county":"Providence",
                    "state":"RI",
                    "population":0
                },
                {
                    "zip":"02829",
                    "city":"Harmony",
                    "county":"Providence",
                    "state":"RI",
                    "population":0
                },
                {
                    "zip":"02862",
                    "city":"Pawtucket",
                    "county":"Providence",
                    "state":"RI",
                    "population":0
                },
                {
                    "zip":"02877",
                    "city":"Slocum",
                    "county":"Washington",
                    "state":"RI",
                    "population":0
                },
                {
                    "zip":"02880",
                    "city":"Wakefield",
                    "county":"Washington",
                    "state":"RI",
                    "population":0
                },
                {
                    "zip":"02883",
                    "city":"Peace Dale",
                    "county":"Washington",
                    "state":"RI",
                    "population":0
                },
                {
                    "zip":"02887",
                    "city":"Warwick",
                    "county":"Kent",
                    "state":"RI",
                    "population":0
                },
                {
                    "zip":"02901",
                    "city":"Providence",
                    "county":"Providence",
                    "state":"RI",
                    "population":0
                },
                {
                    "zip":"02902",
                    "city":"Providence",
                    "county":"Providence",
                    "state":"RI",
                    "population":0
                },
                {
                    "zip":"02918",
                    "city":"Providence",
                    "county":"Providence",
                    "state":"RI",
                    "population":0
                },
                {
                    "zip":"02940",
                    "city":"Providence",
                    "county":"Providence",
                    "state":"RI",
                    "population":0
                }
            ],
            "headers":{
                "access-control-allow-credentials":"true",
                "access-control-allow-origin":"*",
                "content-length":"7867",
                "content-type":"application/json; charset=utf-8",
                "date":"Sun, 11 Dec 2022 21:26:54 GMT",
                "etag":"W/\"1ebb-98zv8vRhwpnvMXGi8vMosPDK8tc\"",
                "server":"RapidAPI-1.2.8",
                "x-powered-by":"Express",
                "x-rapidapi-region":"AWS - eu-central-1",
                "x-rapidapi-version":"1.2.8"
            },
            "schema":{
                "type":"array",
                "items":{
                    "type":"object",
                    "properties":{
                        "zip":{
                            "type":"string"
                        },
                        "city":{
                            "type":"string"
                        },
                        "county":{
                            "type":"string"
                        },
                        "state":{
                            "type":"string"
                        },
                        "population":{
                            "type":"integer"
                        }
                    }
                }
            }
        }
    ]
}